[
  {
    "name": "Metroplex Roofing Contractors",
    "rating": "BBB Rating: A+",
    "location": "Fort Worth, TX 76107-2137",
    "phone": "(817) 332-7074",
    "link": "https://www.bbb.org/us/tx/fort-worth/profile/roofing-contractors/metroplex-roofing-contractors-0825-91030042",
    "street": "",
    "city": "Fort Worth",
    "state": "TX",
    "zip": "76107-2137",
    "fullAddress": "Fort Worth, TX 76107-2137",
    "email": "",
    "website": "",
    "websiteEmail": "",
    "phone1": "(817) 332-7074",
    "Business Management:": "Mr. Carl W. Hickey, President/Owner",
    "Principal Contacts": "Mr. Carl W. Hickey, President/Owner",
    "Customer Contacts": "Mr. Carl W. Hickey, President/Owner"
  },
  {
    "name": "Lakeside Contractors",
    "rating": "",
    "location": "1865 McGee Ln STE H, Lewisville, TX 75077-1774",
    "phone": "(214) 206-5036",
    "link": "https://www.bbb.org/us/tx/denton/profile/roofing-contractors/lakeside-contractors-0875-90392506",
    "street": "1865 McGee Ln STE H",
    "city": "Lewisville",
    "state": "TX",
    "zip": "75077-1774",
    "fullAddress": "1308 Teasley Ln STE 222Denton, TX 76205-7946",
    "email": "",
    "website": "https://www.lakesidecontractors.com/",
    "websiteEmail": "",
    "phone1": "(214) 206-5036",
    "Business Management:": "Mr. Rob Shannon, Owner & LLC Managing Member",
    "Principal Contacts": "Mr. Rob Shannon, Owner & LLC Managing Member",
    "Customer Contacts": "Mr. Rob Shannon, Owner & LLC Managing Member; Mr. Robert Shannon, LLC Managing Member"
  },
  {
    "name": "Lakeside Contractors",
    "rating": "",
    "location": "1308 Teasley Ln STE 222, Denton, TX 76205-7946",
    "phone": "(214) 206-5036",
    "link": "https://www.bbb.org/us/tx/denton/profile/roofing-contractors/lakeside-contractors-0875-90392506",
    "street": "1308 Teasley Ln STE 222",
    "city": "Denton",
    "state": "TX",
    "zip": "76205-7946",
    "fullAddress": "1308 Teasley Ln STE 222Denton, TX 76205-7946",
    "email": "",
    "website": "https://www.lakesidecontractors.com/",
    "websiteEmail": "",
    "phone1": "(214) 206-5036",
    "Business Management:": "Mr. Rob Shannon, Owner & LLC Managing Member",
    "Principal Contacts": "Mr. Rob Shannon, Owner & LLC Managing Member",
    "Customer Contacts": "Mr. Rob Shannon, Owner & LLC Managing Member; Mr. Robert Shannon, LLC Managing Member"
  },
  {
    "name": "JNL Roofing Contractors",
    "rating": "BBB Rating: A+",
    "location": "PO Box 1861, McKinney, TX 75070-8160",
    "phone": "(903) 587-0400",
    "link": "https://www.bbb.org/us/tx/leonard/profile/roofing-contractors/jnl-roofing-contractors-0875-90535764",
    "street": "PO Box 1861",
    "city": "McKinney",
    "state": "TX",
    "zip": "75070-8160",
    "fullAddress": "311 N US Highway 69Leonard, TX 75452",
    "email": "",
    "website": "https://www.jnlroofingcontractors.com/",
    "websiteEmail": "",
    "phone1": "(903) 587-0400",
    "Principal Contacts": "Mr. Justin Perry, Secretary",
    "Customer Contacts": "Mr. Justin Perry, Secretary; Mrs. Melissa L. Perry, President"
  },
  {
    "name": "JNL Roofing Contractors",
    "rating": "BBB Rating: A+",
    "location": "311 N US Highway 69, Leonard, TX 75452",
    "phone": "(903) 587-0400",
    "link": "https://www.bbb.org/us/tx/leonard/profile/roofing-contractors/jnl-roofing-contractors-0875-90535764",
    "street": "311 N US Highway 69",
    "city": "Leonard",
    "state": "TX",
    "zip": "75452",
    "fullAddress": "311 N US Highway 69Leonard, TX 75452",
    "email": "",
    "website": "https://www.jnlroofingcontractors.com/",
    "websiteEmail": "",
    "phone1": "(903) 587-0400",
    "Principal Contacts": "Mr. Justin Perry, Secretary",
    "Customer Contacts": "Mr. Justin Perry, Secretary; Mrs. Melissa L. Perry, President"
  },
  {
    "name": "Excel Roofing Contractors",
    "rating": "BBB Rating: A+",
    "location": "5722 Dunn Ave, Jacksonville, FL 32218-4336",
    "phone": "(904) 631-7663",
    "link": "https://www.bbb.org/us/fl/jacksonville/profile/roofing-contractors/excel-roofing-contractors-0403-160001542/addressId/101417",
    "street": "5722 Dunn Ave",
    "city": "Jacksonville",
    "state": "FL",
    "zip": "32218-4336",
    "fullAddress": "5722 Dunn AveJacksonville, FL 32218-4336",
    "email": "",
    "website": "https://www.excelroofers.com/",
    "websiteEmail": "",
    "phone1": "(904) 631-7663",
    "phone2": "(800) 342-7940",
    "phone3": "(904) 630-2489",
    "Date of New Ownership:": "12/31/2024",
    "Business Management:": "Henry Chris Sears, Vice President; Mr. Samuel Gustus Evans, President",
    "Principal Contacts": "Mr. Samuel Gustus Evans, President",
    "Customer Contacts": "Henry Chris Sears, Vice President; Mr. Samuel Gustus Evans, President"
  },
  {
    "name": "Excel Roofing Contractors",
    "rating": "BBB Rating: A+",
    "location": "4276 Baltic St, Jacksonville, FL 32210-4310",
    "phone": "(904) 631-7663",
    "link": "https://www.bbb.org/us/fl/jacksonville/profile/roofing-contractors/excel-roofing-contractors-0403-160001542",
    "street": "4276 Baltic St",
    "city": "Jacksonville",
    "state": "FL",
    "zip": "32210-4310",
    "fullAddress": "4276 Baltic StJacksonville, FL 32210-4310",
    "email": "",
    "website": "https://www.excelroofers.com/",
    "websiteEmail": "",
    "phone1": "(904) 631-7663",
    "phone2": "(800) 342-7940",
    "phone3": "(904) 630-2489",
    "Date of New Ownership:": "12/31/2024",
    "Business Management:": "Henry Chris Sears, Vice President; Mr. Samuel Gustus Evans, President",
    "Principal Contacts": "Mr. Samuel Gustus Evans, President",
    "Customer Contacts": "Henry Chris Sears, Vice President; Mr. Samuel Gustus Evans, President"
  },
  {
    "name": "Monahan Roofing Contractors",
    "rating": "BBB Rating: A+",
    "location": "2050 Kings Cir S, Neptune Beach, FL 32266-1616",
    "phone": "(904) 221-0059",
    "link": "https://www.bbb.org/us/fl/neptune-beach/profile/commercial-roofing/monahan-roofing-contractors-0403-1713",
    "street": "2050 Kings Cir S",
    "city": "Neptune Beach",
    "state": "FL",
    "zip": "32266-1616",
    "fullAddress": "2050 Kings Cir SNeptune Beach, FL 32266-1616",
    "email": "",
    "website": "https://www.monahanroofingjax.com/",
    "websiteEmail": "",
    "phone1": "(904) 221-0059",
    "phone2": "(904) 568-4920",
    "phone3": "(904) 630-2489",
    "Business Management:": "Mr. Tom Monahan, President",
    "Principal Contacts": "Mr. Tom Monahan, President",
    "Customer Contacts": "Mr. Tom Monahan, President"
  },
  {
    "name": "Poliskey Roofing Contractors",
    "rating": "",
    "location": "26 Emerson Ave # 2, Gloucester, MA 01930-2555",
    "phone": "(978) 281-2442",
    "link": "https://www.bbb.org/us/ma/gloucester/profile/roofing-contractors/poliskey-roofing-contractors-0021-11624",
    "street": "26 Emerson Ave # 2",
    "city": "Gloucester",
    "state": "MA",
    "zip": "01930-2555",
    "fullAddress": "26 Emerson Ave # 2Gloucester, MA 01930-2555",
    "email": "",
    "website": "",
    "websiteEmail": "",
    "phone1": "(978) 281-2442",
    "Business Management:": "Mr. Stephen Poliskey, Owner",
    "Principal Contacts": "Mr. Stephen Poliskey, Owner",
    "Customer Contacts": "Mr. Stephen Poliskey, Owner"
  },
  {
    "name": "Professional Roofing Contractors",
    "rating": "",
    "location": "1210 Madison St, Shelbyville, TN 37160-3626",
    "phone": "(931) 685-4076",
    "link": "https://www.bbb.org/us/tn/shelbyville/profile/roofing-contractors/professional-roofing-contractors-0573-37005660",
    "street": "1210 Madison St",
    "city": "Shelbyville",
    "state": "TN",
    "zip": "37160-3626",
    "fullAddress": "1210 Madison StShelbyville, TN 37160-3626",
    "email": "",
    "website": "https://www.professionalroofingcontractors.com/",
    "websiteEmail": "",
    "phone1": "(931) 685-4076",
    "phone2": "(615) 800-4990",
    "phone3": "(615) 227-7777",
    "phone4": "(888) 685-4076",
    "phone5": "(256) 704-4584",
    "Business Management:": "Mr. Larry Price, Owner",
    "Principal Contacts": "Mr. Larry Price, Owner",
    "Customer Contacts": "Mr. Larry Price, Owner; Mr. Jonathon Price, Manager"
  },
  {
    "name": "Perez Roofing Contractors",
    "rating": "",
    "location": "31 N. Aldine Ave., Elgin, IL 60123-5201",
    "phone": "(847) 836-8339",
    "link": "https://www.bbb.org/us/il/elgin/profile/general-contractor/perez-roofing-contractors-0654-33002131",
    "street": "31 N. Aldine Ave.",
    "city": "Elgin",
    "state": "IL",
    "zip": "60123-5201",
    "fullAddress": "31 N. Aldine Ave.Elgin, IL 60123-5201",
    "email": "",
    "website": "",
    "websiteEmail": "",
    "phone1": "(847) 836-8339",
    "Business Management:": "Mr. Tony Perez",
    "Principal Contacts": "Mr. Tony Perez",
    "Customer Contacts": "Mr. Tony Perez"
  },
  {
    "name": "C.D.E.C. Contractors",
    "rating": "BBB Rating: C",
    "location": "200 Park St, Bennington, VT 05201-2556",
    "phone": "(802) 733-7579",
    "link": "https://www.bbb.org/us/vt/bennington/profile/building-contractors/cdec-contractors-0021-557307",
    "street": "200 Park St",
    "city": "Bennington",
    "state": "VT",
    "zip": "05201-2556",
    "fullAddress": "200 Park StBennington, VT 05201-2556",
    "email": "",
    "website": "",
    "websiteEmail": "",
    "phone1": "(802) 379-2757",
    "phone2": "(802) 379-3266",
    "phone3": "(802) 733-7579",
    "Business Management:": "Mr. David Coon Sr., Owner",
    "Principal Contacts": "Mr. David Coon Sr., Owner",
    "Customer Contacts": "Mr. David Coon Sr., Owner"
  },
  {
    "name": "Dalco Contractors & Roofing",
    "rating": "BBB Rating: A+",
    "location": "2606 Deep Hill Cir, Dallas, TX 75233-4006",
    "phone": "(214) 632-7177",
    "link": "https://www.bbb.org/us/tx/dallas/profile/roofing-contractors/dalco-contractors-roofing-0875-90801760",
    "street": "2606 Deep Hill Cir",
    "city": "Dallas",
    "state": "TX",
    "zip": "75233-4006",
    "fullAddress": "2606 Deep Hill CirDallas, TX 75233-4006",
    "email": "",
    "website": "https://www.roofingdalco.com/",
    "websiteEmail": "",
    "phone1": "(214) 632-7177",
    "Business Management:": "Mr. Brook Stokes, Managing Owner",
    "Principal Contacts": "Mr. Brook Stokes, Managing Owner",
    "Customer Contacts": "Mr. Brook Stokes, Managing Owner"
  },
  {
    "name": "Assurance Contractors",
    "rating": "BBB Rating: A+",
    "location": "333 W Drake Rd Ste 44, Fort Collins, CO 80526-2883",
    "phone": "(970) 797-2502",
    "link": "https://www.bbb.org/us/co/fort-collins/profile/roofing-contractors/assurance-contractors-0805-46018197",
    "street": "333 W Drake Rd Ste 44",
    "city": "Fort Collins",
    "state": "CO",
    "zip": "80526-2883",
    "fullAddress": "333 W Drake Rd Ste 44Fort Collins, CO 80526-2883",
    "email": "",
    "website": "https://www.assurancecontractors.com/",
    "websiteEmail": "",
    "phone1": "(970) 797-2502",
    "phone2": "(800) 992-7231",
    "phone3": "(720) 837-1630",
    "Business Management:": "Mr. Steve Arends, President; Ms. Dawn Arends, Owner",
    "Principal Contacts": "Mr. Steve Arends, President",
    "Customer Contacts": "Ms. Dawn Arends, Owner"
  },
  {
    "name": "Hammertime Contractors",
    "rating": "BBB Rating: F",
    "location": "1808 S Kaufman St, Ennis, TX 75119-7021",
    "phone": "(469) 552-4146",
    "link": "https://www.bbb.org/us/tx/ennis/profile/roofing-contractors/hammertime-contractors-0875-91147957/addressId/146772",
    "street": "1808 S Kaufman St",
    "city": "Ennis",
    "state": "TX",
    "zip": "75119-7021",
    "fullAddress": "1808 S Kaufman StEnnis, TX 75119-7021",
    "email": "",
    "website": "https://hammertimecontractors.com/",
    "websiteEmail": "",
    "phone1": "(469) 552-4146",
    "Business Management:": "Mr. Josh Shook, Operator; Mrs. Jessica Shook, Managing Member",
    "Principal Contacts": "Mr. Josh Shook, Operator",
    "Customer Contacts": "Mr. Josh Shook, Operator; Mrs. Jessica Shook, Managing Member"
  },
  {
    "name": "Dalco Contractors & Roofing",
    "rating": "BBB Rating: A+",
    "location": "2606 Deep Hill Cir, Dallas, TX 75233-4006",
    "phone": "(214) 632-7177",
    "link": "https://www.bbb.org/us/tx/dallas/profile/roofing-contractors/dalco-contractors-roofing-0875-90801760",
    "street": "2606 Deep Hill Cir",
    "city": "Dallas",
    "state": "TX",
    "zip": "75233-4006",
    "fullAddress": "2606 Deep Hill CirDallas, TX 75233-4006",
    "email": "",
    "website": "https://www.roofingdalco.com/",
    "websiteEmail": "",
    "phone1": "(214) 632-7177",
    "Business Management:": "Mr. Brook Stokes, Managing Owner",
    "Principal Contacts": "Mr. Brook Stokes, Managing Owner",
    "Customer Contacts": "Mr. Brook Stokes, Managing Owner"
  },
  {
    "name": "Premier Contractors",
    "rating": "BBB Rating: A+",
    "location": "507 N. Miami Ave., Sidney, OH 45365",
    "phone": "(937) 492-7663",
    "link": "https://www.bbb.org/us/oh/sidney/profile/roofing-contractors/premier-contractors-0322-7005512/addressId/44778",
    "street": "507 N. Miami Ave.",
    "city": "Sidney",
    "state": "OH",
    "zip": "45365",
    "fullAddress": "507 N. Miami Ave.Sidney, OH 45365",
    "email": "",
    "website": "https://www.premiercontractorsofamerica.com/",
    "websiteEmail": "",
    "phone1": "(937) 492-7663",
    "phone2": "(937) 592-9915",
    "phone3": "(937) 335-6080",
    "phone4": "(877) 656-6956",
    "phone5": "(419) 227-7663",
    "phone6": "(937) 548-5119",
    "Business Management:": "Mr. Daniel (Wade) Bowman, Owner",
    "Principal Contacts": "Mr. Daniel (Wade) Bowman, Owner",
    "Customer Contacts": "Mr. Daniel (Wade) Bowman, Owner"
  },
  {
    "name": "Palmer Contractors",
    "rating": "BBB Rating: A+",
    "location": "PO Box 1930, Dover, NH 03821",
    "phone": "(603) 749-6899",
    "link": "https://www.bbb.org/us/nh/dover/profile/roofing-contractors/palmer-contractors-0051-92030100/addressId/40970",
    "street": "PO Box 1930",
    "city": "Dover",
    "state": "NH",
    "zip": "03821",
    "fullAddress": "PO Box 1930Dover, NH 03821",
    "email": "",
    "website": "",
    "websiteEmail": "",
    "phone1": "(603) 749-6899",
    "Business Management:": "John Palmer, Owner",
    "Principal Contacts": "John Palmer, Owner",
    "Customer Contacts": "John Palmer, Owner"
  },
  {
    "name": "Assurance Contractors",
    "rating": "BBB Rating: A+",
    "location": "333 W Drake Rd Ste 44, Fort Collins, CO 80526-2883",
    "phone": "(970) 797-2502",
    "link": "https://www.bbb.org/us/co/fort-collins/profile/roofing-contractors/assurance-contractors-0805-46018197",
    "street": "333 W Drake Rd Ste 44",
    "city": "Fort Collins",
    "state": "CO",
    "zip": "80526-2883",
    "fullAddress": "333 W Drake Rd Ste 44Fort Collins, CO 80526-2883",
    "email": "",
    "website": "https://www.assurancecontractors.com/",
    "websiteEmail": "",
    "phone1": "(970) 797-2502",
    "phone2": "(800) 992-7231",
    "phone3": "(720) 837-1630",
    "Business Management:": "Mr. Steve Arends, President; Ms. Dawn Arends, Owner",
    "Principal Contacts": "Mr. Steve Arends, President",
    "Customer Contacts": "Ms. Dawn Arends, Owner"
  },
  {
    "name": "Hammertime Contractors",
    "rating": "BBB Rating: F",
    "location": "1808 S Kaufman St, Ennis, TX 75119-7021",
    "phone": "(469) 552-4146",
    "link": "https://www.bbb.org/us/tx/ennis/profile/roofing-contractors/hammertime-contractors-0875-91147957/addressId/146772",
    "street": "1808 S Kaufman St",
    "city": "Ennis",
    "state": "TX",
    "zip": "75119-7021",
    "fullAddress": "1808 S Kaufman StEnnis, TX 75119-7021",
    "email": "",
    "website": "https://hammertimecontractors.com/",
    "websiteEmail": "",
    "phone1": "(469) 552-4146",
    "Business Management:": "Mr. Josh Shook, Operator; Mrs. Jessica Shook, Managing Member",
    "Principal Contacts": "Mr. Josh Shook, Operator",
    "Customer Contacts": "Mr. Josh Shook, Operator; Mrs. Jessica Shook, Managing Member"
  },
  {
    "name": "Hammertime Contractors",
    "rating": "BBB Rating: F",
    "location": "3205 Kemp Blvd, Wichita Falls, TX 76308-1831",
    "phone": "(469) 552-4146",
    "link": "https://www.bbb.org/us/tx/wichita-falls/profile/roofing-contractors/hammertime-contractors-0875-91147957/addressId/146773",
    "street": "3205 Kemp Blvd",
    "city": "Wichita Falls",
    "state": "TX",
    "zip": "76308-1831",
    "fullAddress": "3205 Kemp BlvdWichita Falls, TX 76308-1831",
    "email": "",
    "website": "https://hammertimecontractors.com/",
    "websiteEmail": "",
    "phone1": "(469) 552-4146",
    "Business Management:": "Mr. Josh Shook, Operator; Mrs. Jessica Shook, Managing Member",
    "Principal Contacts": "Mr. Josh Shook, Operator",
    "Customer Contacts": "Mr. Josh Shook, Operator; Mrs. Jessica Shook, Managing Member"
  },
  {
    "name": "Hammertime Contractors",
    "rating": "BBB Rating: F",
    "location": "2406 Ellis St Ste 1, Venus, TX 76084-3393",
    "phone": "(469) 552-4146",
    "link": "https://www.bbb.org/us/tx/venus/profile/roofing-contractors/hammertime-contractors-0875-91147957",
    "street": "2406 Ellis St Ste 1",
    "city": "Venus",
    "state": "TX",
    "zip": "76084-3393",
    "fullAddress": "2406 Ellis St Ste 1Venus, TX 76084-3393",
    "email": "",
    "website": "https://hammertimecontractors.com/",
    "websiteEmail": "",
    "phone1": "(469) 552-4146",
    "Business Management:": "Mr. Josh Shook, Operator; Mrs. Jessica Shook, Managing Member",
    "Principal Contacts": "Mr. Josh Shook, Operator",
    "Customer Contacts": "Mr. Josh Shook, Operator; Mrs. Jessica Shook, Managing Member"
  },
  {
    "name": "Hammertime Contractors",
    "rating": "BBB Rating: F",
    "location": "3900 Tule Ranch Rd, Roanoke, TX 76262-1510",
    "phone": "(469) 552-4146",
    "link": "https://www.bbb.org/us/tx/roanoke/profile/roofing-contractors/hammertime-contractors-0875-91147957/addressId/176114",
    "street": "3900 Tule Ranch Rd",
    "city": "Roanoke",
    "state": "TX",
    "zip": "76262-1510",
    "fullAddress": "3900 Tule Ranch RdRoanoke, TX 76262-1510",
    "email": "",
    "website": "https://hammertimecontractors.com/",
    "websiteEmail": "",
    "phone1": "(469) 552-4146",
    "Business Management:": "Mr. Josh Shook, Operator; Mrs. Jessica Shook, Managing Member",
    "Principal Contacts": "Mr. Josh Shook, Operator",
    "Customer Contacts": "Mr. Josh Shook, Operator; Mrs. Jessica Shook, Managing Member"
  },
  {
    "name": "Boyd Contractors",
    "rating": "BBB Rating: A+",
    "location": "401 N Valley Pkwy STE 420, Lewisville, TX 75067-3482",
    "phone": "(469) 877-8655",
    "link": "https://www.bbb.org/us/tx/lewisville/profile/roofing-contractors/boyd-contractors-0875-16002409/addressId/39193",
    "street": "401 N Valley Pkwy STE 420",
    "city": "Lewisville",
    "state": "TX",
    "zip": "75067-3482",
    "fullAddress": "401 N Valley Pkwy STE 420Lewisville, TX 75067-3482",
    "email": "",
    "website": "https://www.boydcontractors.com/",
    "websiteEmail": "",
    "phone1": "(469) 877-8655",
    "Business Management:": "Mr. Steele Kizerian, COO and Director",
    "Principal Contacts": "Mr. Jamey Boyd",
    "Customer Contacts": "Mr. Jamey Boyd; Mr. Steele Kizerian, COO and Director"
  },
  {
    "name": "AMI Roofing Contractors",
    "rating": "BBB Rating: A+",
    "location": "3802 W Industrial Blvd Ste 1, Bloomington, IN 47403-5141",
    "phone": "(812) 327-2885",
    "link": "https://www.bbb.org/us/in/bloomington/profile/roofing-contractors/ami-roofing-contractors-0382-90021357",
    "street": "3802 W Industrial Blvd Ste 1",
    "city": "Bloomington",
    "state": "IN",
    "zip": "47403-5141",
    "fullAddress": "3802 W Industrial Blvd Ste 1Bloomington, IN 47403-5141",
    "email": "",
    "website": "https://amiroofingcontractors.com/",
    "websiteEmail": "",
    "phone1": "(812) 327-2885",
    "Business Management:": "Mr. Paul Prather, Co-Owner; Mr. Bob Van Pelt, Co-Owner; Mr. Kane King, Co-Owner",
    "Principal Contacts": "Mr. Paul Prather, Co-Owner; Mr. Bob Van Pelt, Co-Owner; Mr. Kane King, Co-Owner",
    "Customer Contacts": "Mr. Bob Van Pelt, Co-Owner"
  },
  {
    "name": "Gateway Contractors",
    "rating": "",
    "location": "Fort Worth, TX 76131",
    "phone": "(214) 843-0658",
    "link": "https://www.bbb.org/us/tx/fort-worth/profile/roofing-contractors/gateway-contractors-0825-1000194910?addressId=355483",
    "street": "",
    "city": "Fort Worth",
    "state": "TX",
    "zip": "76131",
    "fullAddress": "Fort Worth, TX 76131-2843",
    "email": "",
    "website": "https://www.gateway-contractors.com/",
    "websiteEmail": "",
    "phone1": "(214) 843-0658",
    "Business Management:": "Mr. Doneric Norwood, Owner; Mr. Max Norwood, Owner",
    "Principal Contacts": "Mr. Doneric Norwood, Owner",
    "Customer Contacts": "Mr. Doneric Norwood, Owner"
  },
  {
    "name": "180 Contractors",
    "rating": "BBB Rating: A+",
    "location": "4696 Dixie Hwy, Waterford, MI 48329-3520",
    "phone": "(248) 714-9158",
    "link": "https://www.bbb.org/us/mi/waterford/profile/roofing-contractors/180-contractors-0372-90033141",
    "street": "4696 Dixie Hwy",
    "city": "Waterford",
    "state": "MI",
    "zip": "48329-3520",
    "fullAddress": "4696 Dixie HwyWaterford, MI 48329-3520",
    "email": "",
    "website": "https://180contractors.com/",
    "websiteEmail": "",
    "phone1": "(248) 714-9158",
    "Principal Contacts": "Mr. Kenneth (Kenny) L. Locatelli, Owner",
    "Customer Contacts": "Mr. Kenneth (Kenny) L. Locatelli, Owner"
  },
  {
    "name": "Hoosier Roofing Contractors",
    "rating": "BBB Rating: A+",
    "location": "1723 Black Bear Dr, Fort Wayne, IN 46808-3511",
    "phone": "(260) 739-2631",
    "link": "https://www.bbb.org/us/in/fort-wayne/profile/roofing-contractors/hoosier-roofing-contractors-0352-90104816/addressId/56855",
    "street": "1723 Black Bear Dr",
    "city": "Fort Wayne",
    "state": "IN",
    "zip": "46808-3511",
    "fullAddress": "1723 Black Bear DrFort Wayne, IN 46808-3511",
    "email": "",
    "website": "https://hoosierroofingfortwayne.com/",
    "websiteEmail": "",
    "phone1": "(260) 739-2631",
    "Business Management:": "Mr. Tanner drew McCartney, Owner",
    "Principal Contacts": "Mr. Tanner drew McCartney, Owner",
    "Customer Contacts": "Mr. Tanner drew McCartney, Owner"
  },
  {
    "name": "Hoosier Roofing Contractors",
    "rating": "BBB Rating: A+",
    "location": "P.O. Box 15534, Fort Wayne, IN 46885",
    "phone": "(260) 739-2631",
    "link": "https://www.bbb.org/us/in/fort-wayne/profile/roofing-contractors/hoosier-roofing-contractors-0352-90104816/addressId/128446",
    "street": "P.O. Box 15534",
    "city": "Fort Wayne",
    "state": "IN",
    "zip": "46885",
    "fullAddress": "P.O. Box 15534Fort Wayne, IN 46885",
    "email": "",
    "website": "https://hoosierroofingfortwayne.com/",
    "websiteEmail": "",
    "phone1": "(260) 739-2631",
    "Business Management:": "Mr. Tanner drew McCartney, Owner",
    "Principal Contacts": "Mr. Tanner drew McCartney, Owner",
    "Customer Contacts": "Mr. Tanner drew McCartney, Owner"
  },
  {
    "name": "Premier Contractors",
    "rating": "BBB Rating: A+",
    "location": "507 N Miami Ave, Sidney, OH 45365",
    "phone": "(937) 492-7663",
    "link": "https://www.bbb.org/us/oh/sidney/profile/roofing-contractors/premier-contractors-0322-7005512",
    "street": "507 N Miami Ave",
    "city": "Sidney",
    "state": "OH",
    "zip": "45365",
    "fullAddress": "507 N Miami AveSidney, OH 45365",
    "email": "",
    "website": "https://www.premiercontractorsofamerica.com/",
    "websiteEmail": "",
    "phone1": "(937) 492-7663",
    "phone2": "(937) 592-9915",
    "phone3": "(937) 335-6080",
    "phone4": "(877) 656-6956",
    "phone5": "(419) 227-7663",
    "phone6": "(937) 548-5119",
    "Business Management:": "Mr. Daniel (Wade) Bowman, Owner",
    "Principal Contacts": "Mr. Daniel (Wade) Bowman, Owner",
    "Customer Contacts": "Mr. Daniel (Wade) Bowman, Owner"
  },
  {
    "name": "Premier Contractors",
    "rating": "BBB Rating: A+",
    "location": "507 N. Miami Ave., Sidney, OH 45365",
    "phone": "(937) 492-7663",
    "link": "https://www.bbb.org/us/oh/sidney/profile/roofing-contractors/premier-contractors-0322-7005512/addressId/44778",
    "street": "507 N. Miami Ave.",
    "city": "Sidney",
    "state": "OH",
    "zip": "45365",
    "fullAddress": "507 N. Miami Ave.Sidney, OH 45365",
    "email": "",
    "website": "https://www.premiercontractorsofamerica.com/",
    "websiteEmail": "",
    "phone1": "(937) 492-7663",
    "phone2": "(937) 592-9915",
    "phone3": "(937) 335-6080",
    "phone4": "(877) 656-6956",
    "phone5": "(419) 227-7663",
    "phone6": "(937) 548-5119",
    "Business Management:": "Mr. Daniel (Wade) Bowman, Owner",
    "Principal Contacts": "Mr. Daniel (Wade) Bowman, Owner",
    "Customer Contacts": "Mr. Daniel (Wade) Bowman, Owner"
  },
  {
    "name": "Gateway Contractors",
    "rating": "",
    "location": "Dallas, TX 75225",
    "phone": "(214) 843-0658",
    "link": "https://www.bbb.org/us/tx/prosper/profile/roofing-contractors/gateway-contractors-0875-91231632",
    "street": "",
    "city": "Dallas",
    "state": "TX",
    "zip": "75225",
    "fullAddress": "Prosper, TX 75078",
    "email": "",
    "website": "https://www.gateway-contractors.com/",
    "websiteEmail": "",
    "phone1": "(214) 843-0658",
    "Business Management:": "Doneric Norwood, Owner; Max Norwood, Owner",
    "Principal Contacts": "Doneric Norwood, Owner",
    "Customer Contacts": "Doneric Norwood, Owner; Max Norwood, Owner"
  },
  {
    "name": "Gateway Contractors",
    "rating": "",
    "location": "Fort Worth, TX 76131-2843",
    "phone": "(214) 843-0658",
    "link": "https://www.bbb.org/us/tx/prosper/profile/roofing-contractors/gateway-contractors-0875-91231632",
    "street": "",
    "city": "Fort Worth",
    "state": "TX",
    "zip": "76131-2843",
    "fullAddress": "Prosper, TX 75078",
    "email": "",
    "website": "https://www.gateway-contractors.com/",
    "websiteEmail": "",
    "phone1": "(214) 843-0658",
    "Business Management:": "Doneric Norwood, Owner; Max Norwood, Owner",
    "Principal Contacts": "Doneric Norwood, Owner",
    "Customer Contacts": "Doneric Norwood, Owner; Max Norwood, Owner"
  },
  {
    "name": "JK Contractors",
    "rating": "BBB Rating: A+",
    "location": "7812 W Clinton Ave, Milwaukee, WI 53223-4530",
    "phone": "(414) 333-5991",
    "link": "https://www.bbb.org/us/wi/milwaukee/profile/roofing-contractors/jk-contractors-0694-3000210",
    "street": "7812 W Clinton Ave",
    "city": "Milwaukee",
    "state": "WI",
    "zip": "53223-4530",
    "fullAddress": "7812 W Clinton AveMilwaukee, WI 53223-4530",
    "email": "",
    "website": "https://jkcontractorsinc.com/",
    "websiteEmail": "",
    "phone1": "(414) 333-5991",
    "Business Management:": "Jeff R. Kurz, President",
    "Principal Contacts": "Jeff R. Kurz, President",
    "Customer Contacts": "Jeff R. Kurz, President"
  },
  {
    "name": "Hoosier Roofing Contractors",
    "rating": "BBB Rating: A+",
    "location": "Fort Wayne, IN 46885-5534",
    "phone": "(260) 739-2631",
    "link": "https://www.bbb.org/us/in/fort-wayne/profile/roofing-contractors/hoosier-roofing-contractors-0352-90104816",
    "street": "",
    "city": "Fort Wayne",
    "state": "IN",
    "zip": "46885-5534",
    "fullAddress": "Fort Wayne, IN 46885-5534",
    "email": "",
    "website": "https://hoosierroofingfortwayne.com/",
    "websiteEmail": "",
    "phone1": "(260) 739-2631",
    "Business Management:": "Mr. Tanner drew McCartney, Owner",
    "Principal Contacts": "Mr. Tanner drew McCartney, Owner",
    "Customer Contacts": "Mr. Tanner drew McCartney, Owner"
  },
  {
    "name": "Boyd Contractors",
    "rating": "BBB Rating: A+",
    "location": "401 N Valley Pkwy STE 420, Lewisville, TX 75067-3482",
    "phone": "(469) 877-8655",
    "link": "https://www.bbb.org/us/tx/lewisville/profile/roofing-contractors/boyd-contractors-0875-16002409/addressId/39193",
    "street": "401 N Valley Pkwy STE 420",
    "city": "Lewisville",
    "state": "TX",
    "zip": "75067-3482",
    "fullAddress": "401 N Valley Pkwy STE 420Lewisville, TX 75067-3482",
    "email": "",
    "website": "https://www.boydcontractors.com/",
    "websiteEmail": "",
    "phone1": "(469) 877-8655",
    "Business Management:": "Mr. Steele Kizerian, COO and Director",
    "Principal Contacts": "Mr. Jamey Boyd",
    "Customer Contacts": "Mr. Jamey Boyd; Mr. Steele Kizerian, COO and Director"
  },
  {
    "name": "Gateway Contractors",
    "rating": "",
    "location": "Prosper, TX 75078",
    "phone": "(214) 843-0658",
    "link": "https://www.bbb.org/us/tx/prosper/profile/roofing-contractors/gateway-contractors-0875-91231632",
    "street": "",
    "city": "Prosper",
    "state": "TX",
    "zip": "75078",
    "fullAddress": "Prosper, TX 75078",
    "email": "",
    "website": "https://www.gateway-contractors.com/",
    "websiteEmail": "",
    "phone1": "(214) 843-0658",
    "Business Management:": "Doneric Norwood, Owner; Max Norwood, Owner",
    "Principal Contacts": "Doneric Norwood, Owner",
    "Customer Contacts": "Doneric Norwood, Owner; Max Norwood, Owner"
  },
  {
    "name": "Smith Contractors",
    "rating": "BBB Rating: A+",
    "location": "1147 Angel Fire Trl, Seagrove, NC 27341-8585",
    "phone": "(336) 267-6348",
    "link": "https://www.bbb.org/us/nc/seagrove/profile/roofing-contractors/smith-contractors-0503-33038864",
    "street": "1147 Angel Fire Trl",
    "city": "Seagrove",
    "state": "NC",
    "zip": "27341-8585",
    "fullAddress": "1147 Angel Fire TrlSeagrove, NC 27341-8585",
    "email": "",
    "website": "",
    "websiteEmail": "",
    "phone1": "(336) 267-6348",
    "phone2": "(336) 873-8895",
    "Business Management:": "Mr. Danny P Smith, Principal",
    "Principal Contacts": "Mr. Danny P Smith, Principal",
    "Customer Contacts": "Mr. Danny P Smith, Principal"
  },
  {
    "name": "DUO Contractors",
    "rating": "BBB Rating: A+",
    "location": "4330 W Vickery Blvd, Fort Worth, TX 76107-6342",
    "phone": "(817) 476-0386",
    "link": "https://www.bbb.org/us/tx/fort-worth/profile/roofing-contractors/duo-contractors-0825-235981525",
    "street": "4330 W Vickery Blvd",
    "city": "Fort Worth",
    "state": "TX",
    "zip": "76107-6342",
    "fullAddress": "4330 W Vickery BlvdFort Worth, TX 76107-6342",
    "email": "",
    "website": "https://www.duocontractors.com/",
    "websiteEmail": "",
    "phone1": "(817) 476-0386",
    "Business Management:": "Mr. Donovan Solis, Member",
    "Principal Contacts": "Mr. Donovan Solis, Member",
    "Customer Contacts": "Mr. Donovan Solis, Member"
  },
  {
    "name": "Gateway Contractors",
    "rating": "",
    "location": "Fort Worth, TX 76131",
    "phone": "(214) 843-0658",
    "link": "https://www.bbb.org/us/tx/fort-worth/profile/roofing-contractors/gateway-contractors-0825-1000194910?addressId=355483",
    "street": "",
    "city": "Fort Worth",
    "state": "TX",
    "zip": "76131",
    "fullAddress": "Fort Worth, TX 76131-2843",
    "email": "",
    "website": "https://www.gateway-contractors.com/",
    "websiteEmail": "",
    "phone1": "(214) 843-0658",
    "Business Management:": "Mr. Doneric Norwood, Owner; Mr. Max Norwood, Owner",
    "Principal Contacts": "Mr. Doneric Norwood, Owner",
    "Customer Contacts": "Mr. Doneric Norwood, Owner"
  },
  {
    "name": "JK Contractors",
    "rating": "BBB Rating: A+",
    "location": "PO Box 250450, Milwaukee, WI 53225-6505",
    "phone": "(414) 333-5991",
    "link": "https://www.bbb.org/us/wi/milwaukee/profile/roofing-contractors/jk-contractors-0694-3000210/addressId/126470",
    "street": "PO Box 250450",
    "city": "Milwaukee",
    "state": "WI",
    "zip": "53225-6505",
    "fullAddress": "PO Box 250450Milwaukee, WI 53225-6505",
    "email": "",
    "website": "https://jkcontractorsinc.com/",
    "websiteEmail": "",
    "phone1": "(414) 333-5991",
    "Business Management:": "Jeff R. Kurz, President",
    "Principal Contacts": "Jeff R. Kurz, President",
    "Customer Contacts": "Jeff R. Kurz, President"
  },
  {
    "name": "Pyramid Contractors",
    "rating": "BBB Rating: A+",
    "location": "Lincoln, NE 68507",
    "phone": "(402) 477-2777",
    "link": "https://www.bbb.org/us/ne/lincoln/profile/roofing-contractors/pyramid-contractors-0714-216002051/addressId/75548",
    "street": "",
    "city": "Lincoln",
    "state": "NE",
    "zip": "68507",
    "fullAddress": "Lincoln, NE 68507",
    "email": "",
    "website": "https://pyramidroof.com/",
    "websiteEmail": "",
    "phone1": "(402) 502-9300",
    "phone2": "(712) 256-3668",
    "phone3": "(402) 477-2777",
    "phone4": "(800) 283-9101",
    "Business Management:": "Kyle Luetticke, CEO/Owner",
    "Customer Contacts": "Kyle Luetticke, CEO/Owner"
  },
  {
    "name": "Prime Contractors",
    "rating": "BBB Rating: A+",
    "location": "4 Bartholomew Ave, Ansonia, CT 06401-2936",
    "phone": "(203) 815-5552",
    "link": "https://www.bbb.org/us/ct/ansonia/profile/siding-contractors/prime-contractors-0111-87144598",
    "street": "4 Bartholomew Ave",
    "city": "Ansonia",
    "state": "CT",
    "zip": "06401-2936",
    "fullAddress": "4 Bartholomew AveAnsonia, CT 06401-2936",
    "email": "",
    "website": "",
    "websiteEmail": "",
    "phone1": "(203) 815-5552",
    "Business Management:": "Mr. San Kizavul, Owner",
    "Principal Contacts": "Mr. San Kizavul, Owner",
    "Customer Contacts": "Mr. San Kizavul, Owner"
  },
  {
    "name": "Pyramid Contractors",
    "rating": "BBB Rating: A+",
    "location": "5532 Center St, Omaha, NE 68106-3002",
    "phone": "(402) 502-9300",
    "link": "https://www.bbb.org/us/ne/omaha/profile/roofing-contractors/pyramid-contractors-0714-216002051",
    "street": "5532 Center St",
    "city": "Omaha",
    "state": "NE",
    "zip": "68106-3002",
    "fullAddress": "5532 Center StOmaha, NE 68106-3002",
    "email": "",
    "website": "https://pyramidroof.com/",
    "websiteEmail": "",
    "phone1": "(402) 502-9300",
    "phone2": "(712) 256-3668",
    "phone3": "(402) 477-2777",
    "phone4": "(800) 283-9101",
    "Business Management:": "Kyle Luetticke, CEO/Owner",
    "Customer Contacts": "Kyle Luetticke, CEO/Owner"
  },
  {
    "name": "Pristine Contractors",
    "rating": "",
    "location": "29500 SE County Road AA, Blue Springs, MO 64014-3423",
    "phone": "(816) 863-4790",
    "link": "https://www.bbb.org/us/mo/blue-springs/profile/general-contractor/pristine-contractors-0714-1000029796",
    "street": "29500 SE County Road AA",
    "city": "Blue Springs",
    "state": "MO",
    "zip": "64014-3423",
    "fullAddress": "29500 SE County Road AABlue Springs, MO 64014-3423",
    "email": "",
    "website": "https://pristinecontractorsllc.com/",
    "websiteEmail": "",
    "phone1": "(816) 863-4790"
  },
  {
    "name": "Atlas Contractors",
    "rating": "",
    "location": "10606 Shady Trl Ste 101, Dallas, TX 75220",
    "phone": "(214) 363-7663",
    "link": "https://www.bbb.org/us/tx/dallas/profile/roofing-contractors/atlas-contractors-0875-90376236/addressId/90765",
    "street": "10606 Shady Trl Ste 101",
    "city": "Dallas",
    "state": "TX",
    "zip": "75220",
    "fullAddress": "10606 Shady Trl Ste 101Dallas, TX 75220",
    "email": "",
    "website": "https://atlascontractors.com/maintenance/",
    "websiteEmail": "",
    "phone1": "(214) 363-7663",
    "phone2": "(972) 834-0119",
    "Business Management:": "Ms. Ashley Anthony, Office Manager",
    "Principal Contacts": "Mr. Goodwin Barrymore, President",
    "Customer Contacts": "Mr. Goodwin Barrymore, President; Ms. Ashley Anthony, Office Manager; Mrs. Kayla Lopez"
  },
  {
    "name": "ARR Contractors",
    "rating": "BBB Rating: A+",
    "location": "9021 Pleasant Hill Dr, Plano, TX 75025-4449",
    "phone": "(972) 266-6677",
    "link": "https://www.bbb.org/us/tx/plano/profile/general-contractor/arr-contractors-0875-91057644",
    "street": "9021 Pleasant Hill Dr",
    "city": "Plano",
    "state": "TX",
    "zip": "75025-4449",
    "fullAddress": "9021 Pleasant Hill DrPlano, TX 75025-4449",
    "email": "",
    "website": "https://www.arrcontractors.com/",
    "websiteEmail": "",
    "phone1": "(972) 266-6677",
    "Business Management:": "Mr. Boris Dinaburg, Owner; Mrs. Inna Dinaburg, President/Director",
    "Principal Contacts": "Mr. Boris Dinaburg, Owner; Mrs. Inna Dinaburg, President/Director",
    "Customer Contacts": "Mr. Boris Dinaburg, Owner; Mrs. Inna Dinaburg, President/Director"
  },
  {
    "name": "Hoosier Roofing Contractors",
    "rating": "BBB Rating: A+",
    "location": "Fort Wayne, IN 46885-5534",
    "phone": "(260) 739-2631",
    "link": "https://www.bbb.org/us/in/fort-wayne/profile/roofing-contractors/hoosier-roofing-contractors-0352-90104816",
    "street": "",
    "city": "Fort Wayne",
    "state": "IN",
    "zip": "46885-5534",
    "fullAddress": "Fort Wayne, IN 46885-5534",
    "email": "",
    "website": "https://hoosierroofingfortwayne.com/",
    "websiteEmail": "",
    "phone1": "(260) 739-2631",
    "Business Management:": "Mr. Tanner drew McCartney, Owner",
    "Principal Contacts": "Mr. Tanner drew McCartney, Owner",
    "Customer Contacts": "Mr. Tanner drew McCartney, Owner"
  },
  {
    "name": "JL Contractors",
    "rating": "BBB Rating: A+",
    "location": "700 Central Expy S STE 400, Allen, TX 75013-8113",
    "phone": "(469) 297-3045",
    "link": "https://www.bbb.org/us/tx/allen/profile/roofing-contractors/jl-contractors-0875-91038424",
    "street": "700 Central Expy S STE 400",
    "city": "Allen",
    "state": "TX",
    "zip": "75013-8113",
    "fullAddress": "700 Central Expy S STE 400Allen, TX 75013-8113",
    "email": "",
    "website": "https://www.jlcontractorsdfw.com/",
    "websiteEmail": "",
    "phone1": "(469) 297-3045",
    "Business Management:": "Mr. Justin Johnson, Managing Member",
    "Principal Contacts": "Mr. Justin Johnson, Managing Member",
    "Customer Contacts": "Mr. Justin Johnson, Managing Member"
  },
  {
    "name": "Pioneer Contractors",
    "rating": "BBB Rating: A+",
    "location": "442 West Ave, Milford, CT 06461-3011",
    "phone": "(203) 878-9164",
    "link": "https://www.bbb.org/us/ct/milford/profile/general-contractor/pioneer-contractors-0111-45000983",
    "street": "442 West Ave",
    "city": "Milford",
    "state": "CT",
    "zip": "06461-3011",
    "fullAddress": "442 West AveMilford, CT 06461-3011",
    "email": "",
    "website": "",
    "websiteEmail": "",
    "phone1": "(203) 878-9164",
    "phone2": "(203) 306-8975",
    "Business Management:": "Mr. Niles Kizavul, Owner",
    "Principal Contacts": "Mr. Niles Kizavul, Owner",
    "Customer Contacts": "Mr. Niles Kizavul, Owner"
  },
  {
    "name": "Pristine Contractors",
    "rating": "",
    "location": "29500 SE County Road AA, Blue Springs, MO 64014-3423",
    "phone": "(816) 863-4790",
    "link": "https://www.bbb.org/us/mo/blue-springs/profile/general-contractor/pristine-contractors-0714-1000029796",
    "street": "29500 SE County Road AA",
    "city": "Blue Springs",
    "state": "MO",
    "zip": "64014-3423",
    "fullAddress": "29500 SE County Road AABlue Springs, MO 64014-3423",
    "email": "",
    "website": "https://pristinecontractorsllc.com/",
    "websiteEmail": "",
    "phone1": "(816) 863-4790"
  },
  {
    "name": "Atlas Contractors",
    "rating": "",
    "location": "901 Business Parkway, Richardson, TX 75081",
    "phone": "(214) 363-7663",
    "link": "https://www.bbb.org/us/tx/richardson/profile/roofing-contractors/atlas-contractors-0875-90376236",
    "street": "901 Business Parkway",
    "city": "Richardson",
    "state": "TX",
    "zip": "75081",
    "fullAddress": "901 Business ParkwayRichardson, TX 75081",
    "email": "",
    "website": "https://atlascontractors.com/maintenance/",
    "websiteEmail": "",
    "phone1": "(214) 363-7663",
    "phone2": "(972) 834-0119",
    "Business Management:": "Ms. Ashley Anthony, Office Manager",
    "Principal Contacts": "Mr. Goodwin Barrymore, President",
    "Customer Contacts": "Mr. Goodwin Barrymore, President; Ms. Ashley Anthony, Office Manager; Mrs. Kayla Lopez"
  },
  {
    "name": "Cowboy Contractors",
    "rating": "BBB Rating: A+",
    "location": "PO Box 334, Dodge, TX 77334-0334",
    "phone": "(936) 355-4637",
    "link": "https://www.bbb.org/us/tx/dodge/profile/construction-services/cowboy-contractors-0825-1000136173",
    "street": "PO Box 334",
    "city": "Dodge",
    "state": "TX",
    "zip": "77334-0334",
    "fullAddress": "PO Box 334Dodge, TX 77334-0334",
    "email": "",
    "website": "https://www.cowboycontractorsllc.com/",
    "websiteEmail": "",
    "phone1": "(936) 355-4637",
    "Business Management:": "Mr. Clint Wilson, Owner",
    "Principal Contacts": "Mr. Clint Wilson, Owner",
    "Customer Contacts": "Mr. Clint Wilson, Owner"
  },
  {
    "name": "Caza Contractors",
    "rating": "BBB Rating: A+",
    "location": "8349 Brewerton Rd, Cicero, NY 13039-9450",
    "phone": "(315) 506-3393",
    "link": "https://www.bbb.org/us/ny/cicero/profile/general-contractor/caza-contractors-0041-57102407",
    "street": "8349 Brewerton Rd",
    "city": "Cicero",
    "state": "NY",
    "zip": "13039-9450",
    "fullAddress": "8349 Brewerton RdCicero, NY 13039-9450",
    "email": "",
    "website": "https://generalcontractorcicerony.com/",
    "websiteEmail": "",
    "phone1": "(315) 506-3393",
    "Business Management:": "Mr. Dustin Caza, Owner",
    "Principal Contacts": "Mr. Dustin Caza, Owner",
    "Customer Contacts": "Mr. Dustin Caza, Owner"
  },
  {
    "name": "Musgrove Contractors",
    "rating": "",
    "location": "35 Water Oak Trl, Covington, GA 30014-4899",
    "phone": "(770) 786-1419",
    "link": "https://www.bbb.org/us/ga/covington/profile/general-contractor/musgrove-contractors-0443-27136429",
    "street": "35 Water Oak Trl",
    "city": "Covington",
    "state": "GA",
    "zip": "30014-4899",
    "fullAddress": "35 Water Oak TrlCovington, GA 30014-4899",
    "email": "",
    "website": "",
    "websiteEmail": "",
    "phone1": "(770) 786-1419",
    "phone2": "(770) 876-1419",
    "Business Management:": "Dave Musgrove, Owner",
    "Principal Contacts": "Dave Musgrove, Owner",
    "Customer Contacts": "Dave Musgrove, Owner"
  },
  {
    "name": "Musgrove Contractors",
    "rating": "",
    "location": "35 Water Oak Trail, Covington, GA 30014",
    "phone": "(770) 786-1419",
    "link": "https://www.bbb.org/us/ga/covington/profile/general-contractor/musgrove-contractors-0443-27136429/addressId/71569",
    "street": "35 Water Oak Trail",
    "city": "Covington",
    "state": "GA",
    "zip": "30014",
    "fullAddress": "35 Water Oak TrailCovington, GA 30014",
    "email": "",
    "website": "",
    "websiteEmail": "",
    "phone1": "(770) 786-1419",
    "phone2": "(770) 876-1419",
    "Business Management:": "Dave Musgrove, Owner",
    "Principal Contacts": "Dave Musgrove, Owner",
    "Customer Contacts": "Dave Musgrove, Owner"
  },
  {
    "name": "Contractors Inc",
    "rating": "",
    "location": "1035 Research Center Drive, Ste A, Atlanta, GA 30331",
    "phone": "(678) 489-2900",
    "link": "https://www.bbb.org/us/ga/atlanta/profile/roofing-contractors/contractors-inc-0443-27501179",
    "street": "",
    "city": "",
    "state": "",
    "zip": "",
    "fullAddress": "1035 Research Center Drive, Ste AAtlanta, GA 30331",
    "email": "",
    "website": "https://www.cranerenovationgroup.com/",
    "websiteEmail": "",
    "phone1": "(678) 489-2900",
    "Business Management:": "Ryan Gorenflo, Manager",
    "Principal Contacts": "Ryan Gorenflo, Manager",
    "Customer Contacts": "Ryan Gorenflo, Manager"
  },
  {
    "name": "CF Contractors",
    "rating": "BBB Rating: A",
    "location": "Cannon Falls, MN 55009-2200",
    "phone": "(703) 656-3845",
    "link": "https://www.bbb.org/us/mn/cannon-falls/profile/residential-general-contractor/cf-contractors-0704-1000069753",
    "street": "",
    "city": "Cannon Falls",
    "state": "MN",
    "zip": "55009-2200",
    "fullAddress": "Cannon Falls, MN 55009-2200",
    "email": "",
    "website": "https://www.cfcontractors.org/",
    "websiteEmail": "",
    "phone1": "(703) 656-3845",
    "Business Management:": "Oscar A. Argueta, Co-Owner",
    "Principal Contacts": "Oscar A. Argueta, Co-Owner",
    "Customer Contacts": "Oscar A. Argueta, Co-Owner"
  },
  {
    "name": "A-1 Contractors",
    "rating": "",
    "location": "533 N Pinetta Dr, N Chesterfld, VA 23235-4921",
    "phone": "(804) 272-5559",
    "link": "https://www.bbb.org/us/va/n-chesterfld/profile/roofing-contractors/a-1-contractors-0603-9000138",
    "street": "533 N Pinetta Dr",
    "city": "N Chesterfld",
    "state": "VA",
    "zip": "23235-4921",
    "fullAddress": "533 N Pinetta DrN Chesterfld, VA 23235-4921",
    "email": "",
    "website": "https://www.chesterfieldroofingva.com/",
    "websiteEmail": "",
    "phone1": "(804) 272-5559",
    "phone2": "(804) 748-8513",
    "phone3": "(804) 794-7079",
    "phone4": "(804) 564-9497",
    "Business Management:": "Mr. Vladimir Tarabay, Owner",
    "Principal Contacts": "Mr. Vladimir Tarabay, Owner",
    "Customer Contacts": "Mr. Vladimir Tarabay, Owner"
  },
  {
    "name": "A-1 Contractors",
    "rating": "",
    "location": "PO Box 35155, Richmond, VA 23235",
    "phone": "(804) 272-5559",
    "link": "https://www.bbb.org/us/va/n-chesterfld/profile/roofing-contractors/a-1-contractors-0603-9000138",
    "street": "PO Box 35155",
    "city": "Richmond",
    "state": "VA",
    "zip": "23235",
    "fullAddress": "533 N Pinetta DrN Chesterfld, VA 23235-4921",
    "email": "",
    "website": "https://www.chesterfieldroofingva.com/",
    "websiteEmail": "",
    "phone1": "(804) 272-5559",
    "phone2": "(804) 748-8513",
    "phone3": "(804) 794-7079",
    "phone4": "(804) 564-9497",
    "Business Management:": "Mr. Vladimir Tarabay, Owner",
    "Principal Contacts": "Mr. Vladimir Tarabay, Owner",
    "Customer Contacts": "Mr. Vladimir Tarabay, Owner"
  },
  {
    "name": "Crown Contractors",
    "rating": "BBB Rating: A+",
    "location": "206 W Trammell Ave, Fort Worth, TX 76140-3217",
    "phone": "(817) 293-6665",
    "link": "https://www.bbb.org/us/tx/fort-worth/profile/commercial-roofing/crown-contractors-0825-144617387",
    "street": "206 W Trammell Ave",
    "city": "Fort Worth",
    "state": "TX",
    "zip": "76140-3217",
    "fullAddress": "206 W Trammell AveFort Worth, TX 76140-3217",
    "email": "",
    "website": "https://crownccr.com/new/",
    "websiteEmail": "",
    "phone1": "(817) 293-6665",
    "phone2": "(866) 652-5779",
    "Business Management:": "Mr. Gregory S Parks, Managing Member",
    "Principal Contacts": "Mr. Gregory S Parks, Managing Member",
    "Customer Contacts": "Mr. Gregory S Parks, Managing Member"
  },
  {
    "name": "Southeast Contractors",
    "rating": "BBB Rating: A+",
    "location": "733 Edge St Unit B, Fort Walton Beach, FL 32547-2953",
    "phone": "(850) 650-0433",
    "link": "https://www.bbb.org/us/fl/fort-walton-beach/profile/roofing-contractors/southeast-contractors-0683-11001736",
    "street": "733 Edge St Unit B",
    "city": "Fort Walton Beach",
    "state": "FL",
    "zip": "32547-2953",
    "fullAddress": "733 Edge St Unit BFort Walton Beach, FL 32547-2953",
    "email": "",
    "website": "https://www.southeastcontractors.net/",
    "websiteEmail": "",
    "phone1": "(850) 650-0433",
    "phone2": "(850) 487-1395",
    "Business Management:": "Mr. Rick Coatsworth, Esq., Op Mgr; Chasity Larson, Office Manager",
    "Customer Contacts": "Amanda Thompson, Receptionist; Chasity Larson, Office Manager"
  },
  {
    "name": "Professional Contractors",
    "rating": "BBB Rating: A+",
    "location": "5612 Saint James Rd, Waldo, OH 43356-9110",
    "phone": "(740) 225-4663",
    "link": "https://www.bbb.org/us/oh/waldo/profile/general-contractor/professional-contractors-0302-70005856",
    "street": "5612 Saint James Rd",
    "city": "Waldo",
    "state": "OH",
    "zip": "43356-9110",
    "fullAddress": "5612 Saint James RdWaldo, OH 43356-9110",
    "email": "",
    "website": "",
    "websiteEmail": "",
    "phone1": "(740) 225-4663",
    "Business Management:": "Mr. Thomas Harris, Owner; Ms. Suzanne Harris, Secretary",
    "Principal Contacts": "Mr. Thomas Harris, Owner",
    "Customer Contacts": "Ms. Suzanne Harris, Secretary"
  },
  {
    "name": "Highland Contractors",
    "rating": "BBB Rating: A+",
    "location": "620 South Clinton Ave., Rochester, NY 14620",
    "phone": "(585) 507-3658",
    "link": "https://www.bbb.org/us/ny/rochester/profile/roofing-contractors/highland-contractors-0041-154843486",
    "street": "620 South Clinton Ave.",
    "city": "Rochester",
    "state": "NY",
    "zip": "14620",
    "fullAddress": "620 South Clinton Ave.Rochester, NY 14620",
    "email": "",
    "website": "https://www.highlandcontractors.net/",
    "websiteEmail": "",
    "phone1": "(585) 507-3658",
    "Business Management:": "Mr. Phil T Leger, Owner; Mr. Jesse Northrop, General Manager",
    "Principal Contacts": "Mr. Phil T Leger, Owner",
    "Customer Contacts": "Mr. Phil T Leger, Owner"
  },
  {
    "name": "JMI Contractors",
    "rating": "BBB Rating: A+",
    "location": "15586 Capital Port, San Antonio, TX 78249-1320",
    "phone": "(210) 492-8181",
    "link": "https://www.bbb.org/us/tx/san-antonio/profile/building-restoration/jmi-contractors-0825-90101745",
    "street": "15586 Capital Port",
    "city": "San Antonio",
    "state": "TX",
    "zip": "78249-1320",
    "fullAddress": "15586 Capital PortSan Antonio, TX 78249-1320",
    "email": "",
    "website": "https://www.jmicontractors.com/",
    "websiteEmail": "",
    "phone1": "(210) 492-8181",
    "phone2": "(361) 960-0706",
    "Business Management:": "Mr. Michael J Garcia, Manager; Mr. James R. Smith, Manager",
    "Principal Contacts": "Mr. James R. Smith, Manager",
    "Customer Contacts": "Mr. James R. Smith, Manager"
  },
  {
    "name": "Rey's Roofing and Contractors",
    "rating": "BBB Rating: A+",
    "location": "Buda, TX 78610-5069",
    "phone": "(737) 217-0370",
    "link": "https://www.bbb.org/us/tx/buda/profile/roofing-contractors/reys-roofing-and-contractors-0825-1000193245",
    "street": "",
    "city": "Buda",
    "state": "TX",
    "zip": "78610-5069",
    "fullAddress": "Buda, TX 78610-5069",
    "email": "",
    "website": "https://www.reysroofing.com/",
    "websiteEmail": "",
    "phone1": "(737) 217-0370",
    "Business Management:": "Mr. Rey D. Hernandez, Managing Member",
    "Principal Contacts": "Mr. Rey D. Hernandez, Managing Member",
    "Customer Contacts": "Mr. Rey D. Hernandez, Managing Member"
  },
  {
    "name": "Rhino Roof Contractors",
    "rating": "BBB Rating: A",
    "location": "6188 SE Amethyst Ter, Hobe Sound, FL 33455-7411",
    "phone": "(561) 236-6344",
    "link": "https://www.bbb.org/us/fl/hobe-sound/profile/roofing-contractors/rhino-roof-contractors-0633-92031098",
    "street": "6188 SE Amethyst Ter",
    "city": "Hobe Sound",
    "state": "FL",
    "zip": "33455-7411",
    "fullAddress": "6188 SE Amethyst TerHobe Sound, FL 33455-7411",
    "email": "",
    "website": "https://www.rhinoroofcontractors.com/",
    "websiteEmail": "",
    "phone1": "(561) 236-6344",
    "Business Management:": "Mr. Michael Monisera, President; Mr. Joaquin Arroyo, Manager; Ms. Katrina Monisera, Vice President; Ms. Gina Limani, Secretary",
    "Principal Contacts": "Mr. Michael Monisera, President",
    "Customer Contacts": "Mr. Michael Monisera, President"
  },
  {
    "name": "Cosha Contractors",
    "rating": "BBB Rating: A+",
    "location": "4874 Bluebonnet Blvd Ste B, Baton Rouge, LA 70809-9668",
    "phone": "(225) 489-6807",
    "link": "https://www.bbb.org/us/la/baton-rouge/profile/home-improvement/cosha-contractors-0835-90037248",
    "street": "4874 Bluebonnet Blvd Ste B",
    "city": "Baton Rouge",
    "state": "LA",
    "zip": "70809-9668",
    "fullAddress": "4874 Bluebonnet Blvd Ste BBaton Rouge, LA 70809-9668",
    "email": "",
    "website": "https://www.coshacontractors.com/",
    "websiteEmail": "",
    "phone1": "(225) 489-6807",
    "Business Management:": "Courtney Fira, Owner",
    "Principal Contacts": "Courtney Fira, Owner",
    "Customer Contacts": "Courtney Fira, Owner"
  },
  {
    "name": "Capital Siding & Roofing Contractors",
    "rating": "BBB Rating: A+",
    "location": "1607 Matthews Ln, Austin, TX 78745-6120",
    "phone": "(512) 810-0937",
    "link": "https://www.bbb.org/us/tx/austin/profile/roofing-contractors/capital-siding-roofing-contractors-0825-48334",
    "street": "1607 Matthews Ln",
    "city": "Austin",
    "state": "TX",
    "zip": "78745-6120",
    "fullAddress": "1607 Matthews LnAustin, TX 78745-6120",
    "email": "",
    "website": "https://capitalsidingandroofing.com/",
    "websiteEmail": "",
    "phone1": "(512) 810-0937",
    "Business Management:": "Mr. Michael Linan, Owner",
    "Principal Contacts": "Mr. Michael Linan, Owner",
    "Customer Contacts": "Mr. Michael Linan, Owner"
  },
  {
    "name": "P.&A. Contractors",
    "rating": "",
    "location": "63-77 76th St., Rego Park, NY 11379",
    "phone": "(718) 894-6049",
    "link": "https://www.bbb.org/us/ny/rego-park/profile/roofing-contractors/pa-contractors-0121-63878",
    "street": "63-77 76th St.",
    "city": "Rego Park",
    "state": "NY",
    "zip": "11379",
    "fullAddress": "63-77 76th St.Rego Park, NY 11379",
    "email": "",
    "website": "",
    "websiteEmail": "",
    "phone1": "(718) 894-6049"
  },
  {
    "name": "Tomahawk Roofing Contractors PLLC",
    "rating": "BBB Rating: A",
    "location": "14835 Cooks Mills Rd, Humboldt, IL 61931-7973",
    "phone": "(217) 335-7663",
    "link": "https://www.bbb.org/us/il/humboldt/profile/roofing-contractors/tomahawk-roofing-contractors-pllc-0734-1000046816",
    "street": "14835 Cooks Mills Rd",
    "city": "Humboldt",
    "state": "IL",
    "zip": "61931-7973",
    "fullAddress": "14835 Cooks Mills RdHumboldt, IL 61931-7973",
    "email": "",
    "website": "https://www.tomahawkroofingpllc.com/",
    "websiteEmail": "",
    "phone1": "(217) 335-7663",
    "Business Management:": "Mr. Alec Smith, Co-Owner; Mr. David Shain, Co-Owner; Mr. Adam Kircher, Co-Owner",
    "Principal Contacts": "Mr. Alec Smith, Co-Owner; Mr. David Shain, Co-Owner; Mr. Adam Kircher, Co-Owner",
    "Customer Contacts": "Mr. Alec Smith, Co-Owner; Mr. David Shain, Co-Owner; Mr. Adam Kircher, Co-Owner"
  },
  {
    "name": "Roofing and Insulation Contractors",
    "rating": "BBB Rating: A+",
    "location": "1850 NW 21st St, Pompano Beach, FL 33069-1306",
    "phone": "(954) 917-6000",
    "link": "https://www.bbb.org/us/fl/pompano-beach/profile/roofing-spray-foam-insulation-contractors/roofing-and-insulation-contractors-0633-90433174",
    "street": "1850 NW 21st St",
    "city": "Pompano Beach",
    "state": "FL",
    "zip": "33069-1306",
    "fullAddress": "1850 NW 21st StPompano Beach, FL 33069-1306",
    "email": "",
    "website": "",
    "websiteEmail": "",
    "phone1": "(954) 917-6000",
    "phone2": "(850) 487-1395",
    "phone3": "(954) 357-7235",
    "Business Management:": "Dottie Thomas, Bookkeeper; Mr. Gary Biederman, Owner",
    "Principal Contacts": "Dottie Thomas, Bookkeeper",
    "Customer Contacts": "Michelle Brinkman, IT Manager; Dottie Thomas, Bookkeeper; Mr. Gary Biederman, Owner"
  },
  {
    "name": "Terry Woodall Roofing Contractors",
    "rating": "BBB Rating: A+",
    "location": "Nashville, TN 37209-2128",
    "phone": "(615) 300-6005",
    "link": "https://www.bbb.org/us/tn/nashville/profile/roofing-contractors/terry-woodall-roofing-contractors-0573-37018701",
    "street": "",
    "city": "Nashville",
    "state": "TN",
    "zip": "37209-2128",
    "fullAddress": "Nashville, TN 37209-2128",
    "email": "",
    "website": "https://www.terrywoodallroofing.com/",
    "websiteEmail": "",
    "phone1": "(615) 300-6005",
    "Business Management:": "Mr. Terry Woodall, Owner",
    "Principal Contacts": "Mr. Terry Woodall, Owner",
    "Customer Contacts": "Mr. Terry Woodall, Owner"
  },
  {
    "name": "CZ Contractors Incorporated",
    "rating": "BBB Rating: A+",
    "location": "7638 Carrington Forest Ln, Matthews, NC 28105-3212",
    "phone": "(704) 301-3447",
    "link": "https://www.bbb.org/us/nc/matthews/profile/roofing-contractors/cz-contractors-incorporated-0473-263569",
    "street": "7638 Carrington Forest Ln",
    "city": "Matthews",
    "state": "NC",
    "zip": "28105-3212",
    "fullAddress": "7638 Carrington Forest LnMatthews, NC 28105-3212",
    "email": "",
    "website": "https://www.newroofcharlotte.com/",
    "websiteEmail": "",
    "phone1": "(704) 301-3447",
    "phone2": "(919) 571-4183",
    "Business Management:": "Ms. Heather Zboch, Owner",
    "Principal Contacts": "Ms. Heather Zboch, Owner",
    "Customer Contacts": "Ms. Heather Zboch, Owner"
  },
  {
    "name": "IRA Thomas Roofing Contractors",
    "rating": "",
    "location": "883 37th St, Emeryville, CA 94608-3910",
    "phone": "(510) 593-9609",
    "link": "https://www.bbb.org/us/ca/emeryville/profile/roofing-contractors/ira-thomas-roofing-contractors-1116-49085",
    "street": "883 37th St",
    "city": "Emeryville",
    "state": "CA",
    "zip": "94608-3910",
    "fullAddress": "883 37th StEmeryville, CA 94608-3910",
    "email": "",
    "website": "",
    "websiteEmail": "",
    "phone1": "(510) 593-9609",
    "phone2": "(510) 223-7663",
    "Business Management:": "Mr. Irysteal Thomas Jr., President",
    "Principal Contacts": "Mr. Irysteal Thomas Jr., President",
    "Customer Contacts": "Mr. Irysteal Thomas Jr., President"
  },
  {
    "name": "Chattanooga Contractors Group",
    "rating": "BBB Rating: A+",
    "location": "2539 McCallie Ave, Chattanooga, TN 37404",
    "phone": "(423) 800-7752",
    "link": "https://www.bbb.org/us/tn/chattanooga/profile/roofing-contractors/chattanooga-contractors-group-0483-40108306",
    "street": "2539 McCallie Ave",
    "city": "Chattanooga",
    "state": "TN",
    "zip": "37404",
    "fullAddress": "2539 McCallie AveChattanooga, TN 37404",
    "email": "",
    "website": "https://chattanoogacontractorsgroup.com/",
    "websiteEmail": "",
    "phone1": "(423) 800-7752",
    "phone2": "(615) 741-2241",
    "Business Management:": "Ms. Nancy Michelle Schrader, Owner",
    "Principal Contacts": "Ms. Nancy Michelle Schrader, Owner",
    "Customer Contacts": "Ms. Nancy Michelle Schrader, Owner"
  },
  {
    "name": "IRA Thomas Roofing Contractors",
    "rating": "",
    "location": "883 37th St, Emeryville, CA 94608-3910",
    "phone": "(510) 593-9609",
    "link": "https://www.bbb.org/us/ca/emeryville/profile/roofing-contractors/ira-thomas-roofing-contractors-1116-49085",
    "street": "883 37th St",
    "city": "Emeryville",
    "state": "CA",
    "zip": "94608-3910",
    "fullAddress": "883 37th StEmeryville, CA 94608-3910",
    "email": "",
    "website": "",
    "websiteEmail": "",
    "phone1": "(510) 593-9609",
    "phone2": "(510) 223-7663",
    "Business Management:": "Mr. Irysteal Thomas Jr., President",
    "Principal Contacts": "Mr. Irysteal Thomas Jr., President",
    "Customer Contacts": "Mr. Irysteal Thomas Jr., President"
  },
  {
    "name": "Iconic Roofing Custom Contractors",
    "rating": "BBB Rating: A-",
    "location": "544 Laurel Lane, Rockwall, TX 75087",
    "phone": "(469) 891-4984",
    "link": "https://www.bbb.org/us/tx/rockwall/profile/roofing-contractors/iconic-roofing-custom-contractors-0875-91343043",
    "street": "544 Laurel Lane",
    "city": "Rockwall",
    "state": "TX",
    "zip": "75087",
    "fullAddress": "544 Laurel LaneRockwall, TX 75087",
    "email": "",
    "website": "https://iconicroofingdfw.com/",
    "websiteEmail": "",
    "phone1": "(469) 891-4984",
    "Business Management:": "Mr. Noah Collier, Owner",
    "Principal Contacts": "Mr. Noah Collier, Owner",
    "Customer Contacts": "Mr. Noah Collier, Owner"
  },
  {
    "name": "Salvo Architectural Roofing Contractors",
    "rating": "BBB Rating: A+",
    "location": "566 W 5th Ave, Naperville, IL 60563-2901",
    "phone": "(630) 857-3631",
    "link": "https://www.bbb.org/us/il/naperville/profile/roofing-contractors/salvo-architectural-roofing-contractors-0654-12015818",
    "street": "566 W 5th Ave",
    "city": "Naperville",
    "state": "IL",
    "zip": "60563-2901",
    "fullAddress": "566 W 5th AveNaperville, IL 60563-2901",
    "email": "",
    "website": "https://www.sarcinc.com/",
    "websiteEmail": "",
    "phone1": "(630) 857-3631",
    "Business Management:": "Mr. Michael J. Salvo, President; Mr. Joshua Salvo, Vice President",
    "Principal Contacts": "Mr. Joshua Salvo, Vice President",
    "Customer Contacts": "Mr. Joshua Salvo, Vice President"
  },
  {
    "name": "Dobson Contractors Inc",
    "rating": "BBB Rating: A+",
    "location": "-------, Ft Worth, TX 76102",
    "phone": "(972) 205-9415",
    "link": "https://www.bbb.org/us/tx/ft-worth/profile/roofing-contractors/dobson-contractors-inc-0825-143643264/addressId/255839",
    "street": "-------",
    "city": "Ft Worth",
    "state": "TX",
    "zip": "76102",
    "fullAddress": "-------Ft Worth, TX 76102",
    "email": "",
    "website": "https://www.dobsoncontractors.com/",
    "websiteEmail": "",
    "phone1": "(972) 205-9415",
    "Business Management:": "Mr. Steve Dobson, President",
    "Principal Contacts": "Mr. Steve Dobson, President",
    "Customer Contacts": "Mr. Steve Dobson, President"
  },
  {
    "name": "First Choice Roofing Contractors",
    "rating": "BBB Rating: A+",
    "location": "3742 E. Cudahy Ave., Cudahy, WI 53110",
    "phone": "",
    "link": "https://www.bbb.org/us/wi/milwaukee/profile/roofing-contractors/first-choice-roofing-contractors-0694-44151461",
    "street": "3742 E. Cudahy Ave.",
    "city": "Cudahy",
    "state": "WI",
    "zip": "53110",
    "fullAddress": "623 East RussellMilwaukee, WI 53207",
    "email": "",
    "website": "",
    "websiteEmail": "",
    "phone1": "(414) 460-1603",
    "Business Management:": "Mr. Paul J. Garcia, Owner",
    "Principal Contacts": "Mr. Paul J. Garcia, Owner",
    "Customer Contacts": "Mr. Paul J. Garcia, Owner"
  },
  {
    "name": "Lakeland Contractors LLC",
    "rating": "BBB Rating: A+",
    "location": "S30W24784 Sunset Unit 2B, Waukesha, WI 53189-7013",
    "phone": "(414) 429-8860",
    "link": "https://www.bbb.org/us/wi/waukesha/profile/construction-services/lakeland-contractors-llc-0694-1000014033",
    "street": "S30W24784 Sunset Unit 2B",
    "city": "Waukesha",
    "state": "WI",
    "zip": "53189-7013",
    "fullAddress": "S30W24784 Sunset Unit 2BWaukesha, WI 53189-7013",
    "email": "",
    "website": "",
    "websiteEmail": "",
    "phone1": "(414) 429-8860",
    "Business Management:": "Jared S. Johnson, Owner",
    "Principal Contacts": "Jared S. Johnson, Owner",
    "Customer Contacts": "Jared S. Johnson, Owner"
  },
  {
    "name": "Walcon Roofing & Contractors LLC",
    "rating": "BBB Rating: B-",
    "location": "----, Arlington, TX 76017",
    "phone": "(214) 524-1380",
    "link": "https://www.bbb.org/us/tx/arlington/profile/roofing-equipment/walcon-roofing-contractors-llc-0825-235974992",
    "street": "----",
    "city": "Arlington",
    "state": "TX",
    "zip": "76017",
    "fullAddress": "----Arlington, TX 76017",
    "email": "",
    "website": "",
    "websiteEmail": "",
    "phone1": "(214) 524-1380",
    "Business Management:": "Mr. Victor L. Walton, Managing Member; Ms. Kerry Walton, Office Manager",
    "Principal Contacts": "Mr. Victor L. Walton, Managing Member",
    "Customer Contacts": "Ms. Kerry Walton, Office Manager"
  },
  {
    "name": "Bear Contractors Inc.",
    "rating": "BBB Rating: A-",
    "location": "6001 Babcock St SE, Palm Bay, FL 32909-3954",
    "phone": "(321) 423-8655",
    "link": "https://www.bbb.org/us/fl/palm-bay/profile/roofing-contractors/bear-contractors-inc-0733-235965624/addressId/178755",
    "street": "6001 Babcock St SE",
    "city": "Palm Bay",
    "state": "FL",
    "zip": "32909-3954",
    "fullAddress": "6001 Babcock St SEPalm Bay, FL 32909-3954",
    "email": "",
    "website": "https://bearroofingfl.com/",
    "websiteEmail": "",
    "phone1": "(321) 423-8655",
    "Business Management:": "Terry Muller, Owner; Bobby Shifteh, Director; Michael E. Banton, License Holder",
    "Principal Contacts": "Terry Muller, Owner; Bobby Shifteh, Director",
    "Customer Contacts": "Terry Muller, Owner"
  },
  {
    "name": "First Choice Roofing Contractors",
    "rating": "BBB Rating: A+",
    "location": "623 East Russell, Milwaukee, WI 53207",
    "phone": "",
    "link": "https://www.bbb.org/us/wi/milwaukee/profile/roofing-contractors/first-choice-roofing-contractors-0694-44151461",
    "street": "623 East Russell",
    "city": "Milwaukee",
    "state": "WI",
    "zip": "53207",
    "fullAddress": "623 East RussellMilwaukee, WI 53207",
    "email": "",
    "website": "",
    "websiteEmail": "",
    "phone1": "(414) 460-1603",
    "Business Management:": "Mr. Paul J. Garcia, Owner",
    "Principal Contacts": "Mr. Paul J. Garcia, Owner",
    "Customer Contacts": "Mr. Paul J. Garcia, Owner"
  },
  {
    "name": "Restoration Contractors LLC",
    "rating": "BBB Rating: A+",
    "location": "7828 Vance Dr Ste 101, Arvada, CO 80003-2125",
    "phone": "(720) 222-0809",
    "link": "https://www.bbb.org/us/co/arvada/profile/roofing-contractors/restoration-contractors-llc-1296-90244238",
    "street": "7828 Vance Dr Ste 101",
    "city": "Arvada",
    "state": "CO",
    "zip": "80003-2125",
    "fullAddress": "7828 Vance Dr Ste 101Arvada, CO 80003-2125",
    "email": "",
    "website": "https://www.restorationcontractorsllc.com/",
    "websiteEmail": "",
    "phone1": "(720) 222-0809",
    "Business Management:": "Mr. Harry Kahn, President",
    "Principal Contacts": "Mr. Harry Kahn, President",
    "Customer Contacts": "Mr. Harry Kahn, President"
  },
  {
    "name": "BluSky Restoration Contractors",
    "rating": "BBB Rating: A+",
    "location": "6011 Culligan Way, Minnetonka, MN 55345",
    "phone": "(800) 266-5677",
    "link": "https://www.bbb.org/us/mn/minnetonka/profile/fire-water-damage-restoration/blusky-restoration-contractors-0704-1000065421/addressId/288414",
    "street": "6011 Culligan Way",
    "city": "Minnetonka",
    "state": "MN",
    "zip": "55345",
    "fullAddress": "6011 Culligan WayMinnetonka, MN 55345",
    "email": "",
    "website": "https://www.goblusky.com/",
    "websiteEmail": "",
    "phone1": "(800) 266-5677"
  },
  {
    "name": "BluSky Restoration Contractors",
    "rating": "BBB Rating: A+",
    "location": "13701 Green Ash Ct, Earth City, MO 63045",
    "phone": "(800) 266-5677",
    "link": "https://www.bbb.org/us/mo/earth-city/profile/fire-water-damage-restoration/blusky-restoration-contractors-0734-110124060/addressId/8679",
    "street": "13701 Green Ash Ct",
    "city": "Earth City",
    "state": "MO",
    "zip": "63045",
    "fullAddress": "13701 Green Ash CtEarth City, MO 63045",
    "email": "",
    "website": "https://www.goblusky.com/",
    "websiteEmail": "",
    "phone1": "(303) 789-4258",
    "phone2": "(800) 266-5677",
    "Business Management:": "Ms. Lisa Tran, Marketing Manager; Mr. Kent Stemper, CEO",
    "Principal Contacts": "Mr. Kent Stemper, CEO"
  },
  {
    "name": "BluSky Restoration Contractors",
    "rating": "BBB Rating: A+",
    "location": "23067 Bernhardt St, Hayward, CA 94545",
    "phone": "(510) 887-8500",
    "link": "https://www.bbb.org/us/ca/hayward/profile/fire-water-damage-restoration/blusky-restoration-contractors-1116-928382/addressId/148533",
    "street": "23067 Bernhardt St",
    "city": "Hayward",
    "state": "CA",
    "zip": "94545",
    "fullAddress": "23067 Bernhardt StHayward, CA 94545-1622",
    "email": "",
    "website": "https://www.goblusky.com/",
    "websiteEmail": "",
    "phone1": "(800) 266-5677",
    "phone2": "(510) 887-8500",
    "Business Management:": "Mr. Drew Bisping, CEO",
    "Customer Contacts": "Mr. Drew Bisping, CEO"
  },
  {
    "name": "Augustine Contractors LLC",
    "rating": "BBB Rating: A+",
    "location": "Apopka, FL 32703-9324",
    "phone": "(585) 754-5218",
    "link": "https://www.bbb.org/us/fl/apopka/profile/roofing-contractors/augustine-contractors-llc-0733-235961829",
    "street": "",
    "city": "Apopka",
    "state": "FL",
    "zip": "32703-9324",
    "fullAddress": "Apopka, FL 32703-9324",
    "email": "",
    "website": "https://www.augustine.pro/",
    "websiteEmail": "",
    "phone1": "(585) 754-5218",
    "phone2": "(407) 221-3691",
    "Business Management:": "Alex E. Gomez, Owner",
    "Principal Contacts": "Alex E. Gomez, Owner",
    "Customer Contacts": "Alex E. Gomez, Owner"
  },
  {
    "name": "Vision Roofing & General Contractors",
    "rating": "BBB Rating: A-",
    "location": "Argyle, TX 76226-3398",
    "phone": "(817) 734-1122",
    "link": "https://www.bbb.org/us/tx/argyle/profile/residential-roofing/vision-roofing-general-contractors-0875-91342595",
    "street": "",
    "city": "Argyle",
    "state": "TX",
    "zip": "76226-3398",
    "fullAddress": "Argyle, TX 76226-3398",
    "email": "",
    "website": "https://visionroofing.com/",
    "websiteEmail": "",
    "phone1": "(817) 734-1122",
    "Business Management:": "Mr. Brenden Palmer, Managing Member",
    "Principal Contacts": "Mr. Brenden Palmer, Managing Member",
    "Customer Contacts": "Mr. Brenden Palmer, Managing Member"
  },
  {
    "name": "Vision Roofing & General Contractors",
    "rating": "BBB Rating: A-",
    "location": "9800 Hillwood Pkwy, Suite 140, Fort Worth, TX 76177",
    "phone": "(817) 734-1122",
    "link": "https://www.bbb.org/us/tx/fort-worth/profile/residential-roofing/vision-roofing-general-contractors-0825-1000230417/addressId/415131",
    "street": "",
    "city": "",
    "state": "",
    "zip": "",
    "fullAddress": "9800 Hillwood Pkwy, Suite 140Fort Worth, TX 76177",
    "email": "",
    "website": "https://visionroofing.com/",
    "websiteEmail": "",
    "phone1": "(817) 734-1122",
    "Business Management:": "Mr. Brenden Palmer, Managing Member",
    "Principal Contacts": "Mr. Brenden Palmer, Managing Member",
    "Customer Contacts": "Mr. Brenden Palmer, Managing Member"
  },
  {
    "name": "Professional Roofers & Contractors",
    "rating": "BBB Rating: A+",
    "location": "421 Luna Azul Dr, Chaparral, NM 88081-7934",
    "phone": "(575) 571-7371",
    "link": "https://www.bbb.org/us/nm/chaparral/profile/roofing-contractors/professional-roofers-contractors-0806-11425",
    "street": "421 Luna Azul Dr",
    "city": "Chaparral",
    "state": "NM",
    "zip": "88081-7934",
    "fullAddress": "421 Luna Azul DrChaparral, NM 88081-7934",
    "email": "",
    "website": "https://professionalrooferssite.com/",
    "websiteEmail": "",
    "phone1": "(575) 571-7371",
    "phone2": "(505) 476-4700",
    "Business Management:": "Mr. Gerardo Ortega, Owner",
    "Principal Contacts": "Mr. Gerardo Ortega, Owner",
    "Customer Contacts": "Mr. Gerardo Ortega, Owner"
  },
  {
    "name": "Pro-Pride Contractors",
    "rating": "",
    "location": "36 Four Seasons #103, Chesterfield, MO 63017-3103",
    "phone": "(314) 514-0044",
    "link": "https://www.bbb.org/us/mo/chesterfield/profile/roofing-contractors/pro-pride-contractors-0654-88379514/addressId/157376",
    "street": "36 Four Seasons #103",
    "city": "Chesterfield",
    "state": "MO",
    "zip": "63017-3103",
    "fullAddress": "36 Four Seasons #103Chesterfield, MO 63017-3103",
    "email": "",
    "website": "https://pro-pride.com/",
    "websiteEmail": "",
    "phone1": "(779) 456-2250",
    "phone2": "(888) 776-7743",
    "phone3": "(618) 222-8880",
    "phone4": "(314) 514-0044",
    "Business Management:": "Mr. L. A. Schwartz, Gen. Mgr.; Mr. Jerry Hudson, Owner/President",
    "Principal Contacts": "Mr. L. A. Schwartz, Gen. Mgr.",
    "Customer Contacts": "Mr. L. A. Schwartz, Gen. Mgr."
  },
  {
    "name": "Pro-Pride Contractors",
    "rating": "",
    "location": "2364 Essington Rd, Joliet, IL 60435-1664",
    "phone": "(779) 456-2250",
    "link": "https://www.bbb.org/us/il/joliet/profile/roofing-contractors/pro-pride-contractors-0654-88379514",
    "street": "2364 Essington Rd",
    "city": "Joliet",
    "state": "IL",
    "zip": "60435-1664",
    "fullAddress": "2364 Essington RdJoliet, IL 60435-1664",
    "email": "",
    "website": "https://pro-pride.com/",
    "websiteEmail": "",
    "phone1": "(779) 456-2250",
    "phone2": "(888) 776-7743",
    "phone3": "(618) 222-8880",
    "phone4": "(314) 514-0044",
    "Business Management:": "Mr. L. A. Schwartz, Gen. Mgr.; Mr. Jerry Hudson, Owner/President",
    "Principal Contacts": "Mr. L. A. Schwartz, Gen. Mgr.",
    "Customer Contacts": "Mr. L. A. Schwartz, Gen. Mgr."
  },
  {
    "name": "Pro-Pride Contractors",
    "rating": "",
    "location": "26 Carlyle Plaza, Suite 185, Belleville, IL 62221",
    "phone": "(618) 222-8880",
    "link": "https://www.bbb.org/us/il/belleville/profile/roofing-contractors/pro-pride-contractors-0654-88379514/addressId/157380",
    "street": "",
    "city": "",
    "state": "",
    "zip": "",
    "fullAddress": "26 Carlyle Plaza, Suite 185Belleville, IL 62221",
    "email": "",
    "website": "https://pro-pride.com/",
    "websiteEmail": "",
    "phone1": "(779) 456-2250",
    "phone2": "(888) 776-7743",
    "phone3": "(618) 222-8880",
    "phone4": "(314) 514-0044",
    "Business Management:": "Mr. L. A. Schwartz, Gen. Mgr.; Mr. Jerry Hudson, Owner/President",
    "Principal Contacts": "Mr. L. A. Schwartz, Gen. Mgr.",
    "Customer Contacts": "Mr. L. A. Schwartz, Gen. Mgr."
  },
  {
    "name": "Bear Contractors Inc.",
    "rating": "BBB Rating: A-",
    "location": "1712 Canova St SE, Palm Bay, FL 32909-3975",
    "phone": "(321) 423-8655",
    "link": "https://www.bbb.org/us/fl/palm-bay/profile/roofing-contractors/bear-contractors-inc-0733-235965624",
    "street": "1712 Canova St SE",
    "city": "Palm Bay",
    "state": "FL",
    "zip": "32909-3975",
    "fullAddress": "1712 Canova St SEPalm Bay, FL 32909-3975",
    "email": "",
    "website": "https://bearroofingfl.com/",
    "websiteEmail": "",
    "phone1": "(321) 423-8655",
    "Business Management:": "Terry Muller, Owner; Bobby Shifteh, Director; Michael E. Banton, License Holder",
    "Principal Contacts": "Terry Muller, Owner; Bobby Shifteh, Director",
    "Customer Contacts": "Terry Muller, Owner"
  },
  {
    "name": "R & R Contractors",
    "rating": "",
    "location": "11315 S Green Gate Ln, Medical Lake, WA 99022-8532",
    "phone": "(509) 342-5757",
    "link": "https://www.bbb.org/us/wa/medical-lake/profile/roofing-contractors/r-r-contractors-1296-1000005425",
    "street": "11315 S Green Gate Ln",
    "city": "Medical Lake",
    "state": "WA",
    "zip": "99022-8532",
    "fullAddress": "11315 S Green Gate LnMedical Lake, WA 99022-8532",
    "email": "",
    "website": "",
    "websiteEmail": "",
    "Business Management:": "Samuel White, Owner; Laura Jacob, Owner",
    "Principal Contacts": "Samuel White, Owner",
    "Customer Contacts": "Samuel White, Owner"
  },
  {
    "name": "Air Tech Contractors",
    "rating": "BBB Rating: A+",
    "location": "244 Crestmont Dr, El Paso, TX 79912-5361",
    "phone": "(915) 490-4671",
    "link": "https://www.bbb.org/us/tx/el-paso/profile/roofing-contractors/air-tech-contractors-0895-99129038",
    "street": "244 Crestmont Dr",
    "city": "El Paso",
    "state": "TX",
    "zip": "79912-5361",
    "fullAddress": "244 Crestmont DrEl Paso, TX 79912-5361",
    "email": "",
    "website": "",
    "websiteEmail": "",
    "phone1": "(915) 490-4671",
    "Business Management:": "Luis Alberto Lizama, Owner",
    "Principal Contacts": "Luis Alberto Lizama, Owner",
    "Customer Contacts": "Luis Alberto Lizama, Owner"
  },
  {
    "name": "Champion Contractors & Services",
    "rating": "BBB Rating: A+",
    "location": "400 S 4th St STE 500, Las Vegas, NV 89101-6207",
    "phone": "(877) 242-6748",
    "link": "https://www.bbb.org/us/nv/las-vegas/profile/commercial-roofing/champion-contractors-services-1086-90048535/addressId/43647",
    "street": "400 S 4th St STE 500",
    "city": "Las Vegas",
    "state": "NV",
    "zip": "89101-6207",
    "fullAddress": "400 S 4th St STE 500Las Vegas, NV 89101-6207",
    "email": "",
    "website": "https://championcontractors.com/",
    "websiteEmail": "",
    "phone1": "(877) 242-6748",
    "Principal Contacts": "Mr. Kirby A. Vogler, Manager",
    "Customer Contacts": "Mr. Kirby A. Vogler, Manager"
  },
  {
    "name": "Champion Contractors & Services",
    "rating": "BBB Rating: A+",
    "location": "7300 W 110th St Fl 7, Shawnee Msn, KS 66210-2332",
    "phone": "(877) 242-6748",
    "link": "https://www.bbb.org/us/ks/shawnee-msn/profile/commercial-roofing/champion-contractors-services-0825-90044610/addressId/374718",
    "street": "7300 W 110th St Fl 7",
    "city": "Shawnee Msn",
    "state": "KS",
    "zip": "66210-2332",
    "fullAddress": "7300 W 110th St Fl 7Shawnee Msn, KS 66210-2332",
    "email": "",
    "website": "https://championcontractors.com/",
    "websiteEmail": "",
    "phone1": "(877) 242-6748",
    "phone2": "(281) 734-2236",
    "Business Management:": "Mr. Tim Wilson, President; Mr. Kirby Vogler, Vice President",
    "Principal Contacts": "Mr. Kirby Vogler, Vice President",
    "Customer Contacts": "Mr. Kirby Vogler, Vice President"
  },
  {
    "name": "Contractors Specialty Metals",
    "rating": "",
    "location": "2004 Babcock Blvd, Pittsburgh, PA 15209-1306",
    "phone": "(412) 931-6644",
    "link": "https://www.bbb.org/us/pa/pittsburgh/profile/roofing-contractors/contractors-specialty-metals-0141-18002179",
    "street": "2004 Babcock Blvd",
    "city": "Pittsburgh",
    "state": "PA",
    "zip": "15209-1306",
    "fullAddress": "PO Box 99623Pittsburgh, PA 15233-4623",
    "email": "",
    "website": "",
    "websiteEmail": "",
    "phone1": "(412) 931-6644",
    "phone2": "(412) 821-3378",
    "Business Management:": "Mr. Robert A Sambroak, Owner",
    "Principal Contacts": "Mr. Robert A Sambroak, Owner",
    "Customer Contacts": "Mr. Robert A Sambroak, Owner"
  },
  {
    "name": "Titan Exterior Contractors",
    "rating": "",
    "location": "346 Hord St., New Orleans, LA 70123",
    "phone": "",
    "link": "https://www.bbb.org/us/la/new-orleans/profile/roofing-contractors/titan-exterior-contractors-0985-90014213",
    "street": "346 Hord St.",
    "city": "New Orleans",
    "state": "LA",
    "zip": "70123",
    "fullAddress": "346 Hord St.New Orleans, LA 70123",
    "email": "",
    "website": "",
    "websiteEmail": "",
    "Business Management:": "Mrs. Sarah C Perez, Office Manager",
    "Principal Contacts": "Mrs. Sarah C Perez, Office Manager",
    "Customer Contacts": "Mrs. Sarah C Perez, Office Manager"
  },
  {
    "name": "Double J Roofing & Contractors",
    "rating": "BBB Rating: A+",
    "location": "4011 N Saint Peters Pkwy Ste 200, Saint Peters, MO 63304-7396",
    "phone": "(636) 366-5084",
    "link": "https://www.bbb.org/us/mo/saint-peters/profile/roofing-contractors/double-j-roofing-contractors-0734-310562318",
    "street": "4011 N Saint Peters Pkwy Ste 200",
    "city": "Saint Peters",
    "state": "MO",
    "zip": "63304-7396",
    "fullAddress": "4011 N Saint Peters Pkwy Ste 200Saint Peters, MO 63304-7396",
    "email": "",
    "website": "https://doublejroofing.org/",
    "websiteEmail": "",
    "phone1": "(636) 366-5084",
    "phone2": "(636) 357-7495",
    "Business Management:": "Mrs. Julia Willman, Owner; Mr. Jeffrey Willman, Owner",
    "Principal Contacts": "Mrs. Julia Willman, Owner",
    "Customer Contacts": "Mrs. Julia Willman, Owner"
  },
  {
    "name": "Alpha Contractors LLC",
    "rating": "BBB Rating: A-",
    "location": "4481 Oleander Dr, Myrtle Beach, SC 29577-5837",
    "phone": "(843) 698-9332",
    "link": "https://www.bbb.org/us/sc/myrtle-beach/profile/roofing-contractors/alpha-contractors-llc-0593-90364800",
    "street": "4481 Oleander Dr",
    "city": "Myrtle Beach",
    "state": "SC",
    "zip": "29577-5837",
    "fullAddress": "4481 Oleander DrMyrtle Beach, SC 29577-5837",
    "email": "",
    "website": "https://thealphacontractors.com/",
    "websiteEmail": "",
    "phone1": "(843) 698-9332",
    "Business Management:": "Mr. Casey King, Owner / Co-Founder",
    "Principal Contacts": "Mr. Casey King, Owner / Co-Founder",
    "Customer Contacts": "Mr. Casey King, Owner / Co-Founder"
  },
  {
    "name": "Alpha Contractors LLC",
    "rating": "BBB Rating: A-",
    "location": "4481 Oleander Dr, Myrtle Beach, SC 29577-5837",
    "phone": "(843) 698-9332",
    "link": "https://www.bbb.org/us/sc/myrtle-beach/profile/roofing-contractors/alpha-contractors-llc-0593-90364800",
    "street": "4481 Oleander Dr",
    "city": "Myrtle Beach",
    "state": "SC",
    "zip": "29577-5837",
    "fullAddress": "4481 Oleander DrMyrtle Beach, SC 29577-5837",
    "email": "",
    "website": "https://thealphacontractors.com/",
    "websiteEmail": "",
    "phone1": "(843) 698-9332",
    "Business Management:": "Mr. Casey King, Owner / Co-Founder",
    "Principal Contacts": "Mr. Casey King, Owner / Co-Founder",
    "Customer Contacts": "Mr. Casey King, Owner / Co-Founder"
  },
  {
    "name": "Amish Contractors LLC",
    "rating": "BBB Rating: A+",
    "location": "PO Box 667, Washington, IN 47501",
    "phone": "(812) 698-3375",
    "link": "https://www.bbb.org/us/in/washington/profile/roofing-contractors/amish-contractors-llc-0482-90042584/addressId/37724",
    "street": "PO Box 667",
    "city": "Washington",
    "state": "IN",
    "zip": "47501",
    "fullAddress": "PO Box 667Washington, IN 47501",
    "email": "",
    "website": "",
    "websiteEmail": "",
    "phone1": "(812) 698-3375",
    "phone2": "(812) 787-1889",
    "Business Management:": "Mr. Marcus Graber, Owner",
    "Principal Contacts": "Mr. Marcus Graber, Owner",
    "Customer Contacts": "Mr. Marcus Graber, Owner"
  },
  {
    "name": "Michael Anthony Contractors",
    "rating": "BBB Rating: A+",
    "location": "96 Washington Street, Fairhaven, MA 02719-4036",
    "phone": "(774) 930-1289",
    "link": "https://www.bbb.org/us/ma/fairhaven/profile/roofing-contractors/michael-anthony-contractors-0021-13889",
    "street": "96 Washington Street",
    "city": "Fairhaven",
    "state": "MA",
    "zip": "02719-4036",
    "fullAddress": "96 Washington StreetFairhaven, MA 02719-4036",
    "email": "",
    "website": "",
    "websiteEmail": "",
    "phone1": "(774) 930-1289",
    "Business Management:": "Mr. Michael Almeida, Owner",
    "Principal Contacts": "Mr. Michael Almeida, Owner",
    "Customer Contacts": "Mr. Michael Almeida, Owner"
  },
  {
    "name": "Amish Contractors LLC",
    "rating": "BBB Rating: A+",
    "location": "2648 W. 300 S., Washington, IN 47501",
    "phone": "(812) 698-3375",
    "link": "https://www.bbb.org/us/in/washington/profile/roofing-contractors/amish-contractors-llc-0482-90042584",
    "street": "2648 W. 300 S.",
    "city": "Washington",
    "state": "IN",
    "zip": "47501",
    "fullAddress": "2648 W. 300 S.Washington, IN 47501",
    "email": "",
    "website": "",
    "websiteEmail": "",
    "phone1": "(812) 698-3375",
    "phone2": "(812) 787-1889",
    "Business Management:": "Mr. Marcus Graber, Owner",
    "Principal Contacts": "Mr. Marcus Graber, Owner",
    "Customer Contacts": "Mr. Marcus Graber, Owner"
  },
  {
    "name": "Stone Creek Contractors",
    "rating": "BBB Rating: A+",
    "location": "Chelsea, AL 35043-1434",
    "phone": "(205) 894-2526",
    "link": "https://www.bbb.org/us/al/chelsea/profile/roofing-contractors/stone-creek-contractors-0463-1000029575",
    "street": "",
    "city": "Chelsea",
    "state": "AL",
    "zip": "35043-1434",
    "fullAddress": "Chelsea, AL 35043-1434",
    "email": "",
    "website": "https://www.stonecreekcontractors.com/",
    "websiteEmail": "",
    "phone1": "(205) 894-2526"
  },
  {
    "name": "M&M Roofing and Contractors",
    "rating": "",
    "location": "3232 N Garland Ave, Garland, TX 75040-3207",
    "phone": "(214) 597-7487",
    "link": "https://www.bbb.org/us/tx/garland/profile/roofing-contractors/mm-roofing-and-contractors-0875-90623849",
    "street": "3232 N Garland Ave",
    "city": "Garland",
    "state": "TX",
    "zip": "75040-3207",
    "fullAddress": "3232 N Garland AveGarland, TX 75040-3207",
    "email": "",
    "website": "https://www.facebook.com/mmroofing12",
    "websiteEmail": "",
    "phone1": "(214) 597-7487",
    "Business Management:": "Ms. Laura Nandin, Owner",
    "Principal Contacts": "Ms. Laura Nandin, Owner",
    "Customer Contacts": "Ms. Laura Nandin, Owner; Ms. Alany Salazar, Manager; Mr. Abel Salazar, Owner"
  },
  {
    "name": "Professional Roofers & Contractors",
    "rating": "BBB Rating: A+",
    "location": "421 Luna Azul Dr, Chaparral, NM 88081-7934",
    "phone": "(575) 571-7371",
    "link": "https://www.bbb.org/us/nm/chaparral/profile/roofing-contractors/professional-roofers-contractors-0806-11425",
    "street": "421 Luna Azul Dr",
    "city": "Chaparral",
    "state": "NM",
    "zip": "88081-7934",
    "fullAddress": "421 Luna Azul DrChaparral, NM 88081-7934",
    "email": "",
    "website": "https://professionalrooferssite.com/",
    "websiteEmail": "",
    "phone1": "(575) 571-7371",
    "phone2": "(505) 476-4700",
    "Business Management:": "Mr. Gerardo Ortega, Owner",
    "Principal Contacts": "Mr. Gerardo Ortega, Owner",
    "Customer Contacts": "Mr. Gerardo Ortega, Owner"
  },
  {
    "name": "LJS Contractors Roofing and Restoration",
    "rating": "BBB Rating: A+",
    "location": "125 E Greencastle Rd, Mooresville, IN 46158-7247",
    "phone": "(317) 834-4766",
    "link": "https://www.bbb.org/us/in/mooresville/profile/roofing-contractors/ljs-contractors-roofing-and-restoration-0382-8000659",
    "street": "125 E Greencastle Rd",
    "city": "Mooresville",
    "state": "IN",
    "zip": "46158-7247",
    "fullAddress": "125 E Greencastle RdMooresville, IN 46158-7247",
    "email": "",
    "website": "https://www.ljscontractors.com/",
    "websiteEmail": "",
    "phone1": "(317) 834-4766",
    "Business Management:": "Mr. John Monaghan II, Owner; Ms. Kris Monaghan",
    "Principal Contacts": "Mr. John Monaghan II, Owner",
    "Customer Contacts": "Ms. Kris Monaghan"
  },
  {
    "name": "Pro-Pride Contractors",
    "rating": "",
    "location": "36 Four Seasons #103, Chesterfield, MO 63017-3103",
    "phone": "(314) 514-0044",
    "link": "https://www.bbb.org/us/mo/chesterfield/profile/roofing-contractors/pro-pride-contractors-0654-88379514/addressId/157376",
    "street": "36 Four Seasons #103",
    "city": "Chesterfield",
    "state": "MO",
    "zip": "63017-3103",
    "fullAddress": "36 Four Seasons #103Chesterfield, MO 63017-3103",
    "email": "",
    "website": "https://pro-pride.com/",
    "websiteEmail": "",
    "phone1": "(779) 456-2250",
    "phone2": "(888) 776-7743",
    "phone3": "(618) 222-8880",
    "phone4": "(314) 514-0044",
    "Business Management:": "Mr. L. A. Schwartz, Gen. Mgr.; Mr. Jerry Hudson, Owner/President",
    "Principal Contacts": "Mr. L. A. Schwartz, Gen. Mgr.",
    "Customer Contacts": "Mr. L. A. Schwartz, Gen. Mgr."
  },
  {
    "name": "Pro-Pride Contractors",
    "rating": "",
    "location": "2364 Essington Rd, Joliet, IL 60435-1664",
    "phone": "(779) 456-2250",
    "link": "https://www.bbb.org/us/il/joliet/profile/roofing-contractors/pro-pride-contractors-0654-88379514",
    "street": "2364 Essington Rd",
    "city": "Joliet",
    "state": "IL",
    "zip": "60435-1664",
    "fullAddress": "2364 Essington RdJoliet, IL 60435-1664",
    "email": "",
    "website": "https://pro-pride.com/",
    "websiteEmail": "",
    "phone1": "(779) 456-2250",
    "phone2": "(888) 776-7743",
    "phone3": "(618) 222-8880",
    "phone4": "(314) 514-0044",
    "Business Management:": "Mr. L. A. Schwartz, Gen. Mgr.; Mr. Jerry Hudson, Owner/President",
    "Principal Contacts": "Mr. L. A. Schwartz, Gen. Mgr.",
    "Customer Contacts": "Mr. L. A. Schwartz, Gen. Mgr."
  },
  {
    "name": "Pro-Pride Contractors",
    "rating": "",
    "location": "26 Carlyle Plaza, Suite 185, Belleville, IL 62221",
    "phone": "(618) 222-8880",
    "link": "https://www.bbb.org/us/il/belleville/profile/roofing-contractors/pro-pride-contractors-0654-88379514/addressId/157380",
    "street": "",
    "city": "",
    "state": "",
    "zip": "",
    "fullAddress": "26 Carlyle Plaza, Suite 185Belleville, IL 62221",
    "email": "",
    "website": "https://pro-pride.com/",
    "websiteEmail": "",
    "phone1": "(779) 456-2250",
    "phone2": "(888) 776-7743",
    "phone3": "(618) 222-8880",
    "phone4": "(314) 514-0044",
    "Business Management:": "Mr. L. A. Schwartz, Gen. Mgr.; Mr. Jerry Hudson, Owner/President",
    "Principal Contacts": "Mr. L. A. Schwartz, Gen. Mgr.",
    "Customer Contacts": "Mr. L. A. Schwartz, Gen. Mgr."
  },
  {
    "name": "United Contractors LLC",
    "rating": "BBB Rating: A",
    "location": "3717 Highway 3 Ste B, Dickinson, TX 77539-8024",
    "phone": "(281) 984-7910",
    "link": "https://www.bbb.org/us/tx/dickinson/profile/roofing-contractors/united-contractors-llc-0915-90068473",
    "street": "3717 Highway 3 Ste B",
    "city": "Dickinson",
    "state": "TX",
    "zip": "77539-8024",
    "fullAddress": "3717 Highway 3 Ste BDickinson, TX 77539-8024",
    "email": "",
    "website": "https://uctroofing.com/",
    "websiteEmail": "",
    "phone1": "(281) 984-7910",
    "Business Management:": "Mr. Juan Verde, Co-Owner; Mr. Mathis Jean, Operations Manager",
    "Customer Contacts": "Mr. Mathis Jean, Operations Manager"
  },
  {
    "name": "Lion General Contractors",
    "rating": "BBB Rating: A+",
    "location": "431 S Stapley Dr Ste 27, Mesa, AZ 85204-2652",
    "phone": "(480) 610-4609",
    "link": "https://www.bbb.org/us/az/mesa/profile/general-contractor/lion-general-contractors-1126-1000023791",
    "street": "431 S Stapley Dr Ste 27",
    "city": "Mesa",
    "state": "AZ",
    "zip": "85204-2652",
    "fullAddress": "431 S Stapley Dr Ste 27Mesa, AZ 85204-2652",
    "email": "",
    "website": "",
    "websiteEmail": "",
    "phone1": "(480) 610-4609",
    "Business Management:": "Mr. Samuel N. Lambe, Member",
    "Principal Contacts": "Mr. Samuel N. Lambe, Member",
    "Customer Contacts": "Mr. Samuel N. Lambe, Member"
  },
  {
    "name": "Contractors Specialty Metals",
    "rating": "",
    "location": "2004 Babcock Blvd, Pittsburgh, PA 15209-1306",
    "phone": "(412) 931-6644",
    "link": "https://www.bbb.org/us/pa/pittsburgh/profile/roofing-contractors/contractors-specialty-metals-0141-18002179",
    "street": "2004 Babcock Blvd",
    "city": "Pittsburgh",
    "state": "PA",
    "zip": "15209-1306",
    "fullAddress": "PO Box 99623Pittsburgh, PA 15233-4623",
    "email": "",
    "website": "",
    "websiteEmail": "",
    "phone1": "(412) 931-6644",
    "phone2": "(412) 821-3378",
    "Business Management:": "Mr. Robert A Sambroak, Owner",
    "Principal Contacts": "Mr. Robert A Sambroak, Owner",
    "Customer Contacts": "Mr. Robert A Sambroak, Owner"
  },
  {
    "name": "Good Contractors Roofing and Restoration",
    "rating": "BBB Rating: A",
    "location": "1617 Park Place Ave Ste 110-GCR, Fort Worth, TX 76110-1300",
    "phone": "(682) 842-7663",
    "link": "https://www.bbb.org/us/tx/fort-worth/profile/roofing-contractors/good-contractors-roofing-and-restoration-0825-1000212755/addressId/384789",
    "street": "1617 Park Place Ave Ste 110-GCR",
    "city": "Fort Worth",
    "state": "TX",
    "zip": "76110-1300",
    "fullAddress": "1617 Park Place Ave Ste 110-GCRFort Worth, TX 76110-1300",
    "email": "",
    "website": "https://goodcontractorsroofing.com/",
    "websiteEmail": "",
    "phone1": "(682) 842-7663",
    "Business Management:": "Mr. Ken Donaghy, Owner",
    "Principal Contacts": "Mr. Ken Donaghy, Owner",
    "Customer Contacts": "Mr. Ken Donaghy, Owner"
  },
  {
    "name": "Champion Contractors & Services",
    "rating": "BBB Rating: A+",
    "location": "7300 W 110th St Fl 7, Shawnee Msn, KS 66210-2332",
    "phone": "(877) 242-6748",
    "link": "https://www.bbb.org/us/ks/shawnee-msn/profile/commercial-roofing/champion-contractors-services-0825-90044610/addressId/374718",
    "street": "7300 W 110th St Fl 7",
    "city": "Shawnee Msn",
    "state": "KS",
    "zip": "66210-2332",
    "fullAddress": "7300 W 110th St Fl 7Shawnee Msn, KS 66210-2332",
    "email": "",
    "website": "https://championcontractors.com/",
    "websiteEmail": "",
    "phone1": "(877) 242-6748",
    "phone2": "(281) 734-2236",
    "Business Management:": "Mr. Tim Wilson, President; Mr. Kirby Vogler, Vice President",
    "Principal Contacts": "Mr. Kirby Vogler, Vice President",
    "Customer Contacts": "Mr. Kirby Vogler, Vice President"
  },
  {
    "name": "North American Contractors",
    "rating": "BBB Rating: A+",
    "location": "6011 E Hanna Avenue #C, Indianapolis, IN 46203",
    "phone": "(317) 744-1134",
    "link": "https://www.bbb.org/us/in/indianapolis/profile/roofing-contractors/north-american-contractors-0382-15006824",
    "street": "6011 E Hanna Avenue #C",
    "city": "Indianapolis",
    "state": "IN",
    "zip": "46203",
    "fullAddress": "6011 E Hanna Avenue #CIndianapolis, IN 46203",
    "email": "",
    "website": "https://www.nacontractors.com/",
    "websiteEmail": "",
    "phone1": "(317) 744-1134",
    "phone2": "(317) 787-5211",
    "phone3": "(866) 939-4911",
    "Business Management:": "Ms. Jan Stephenson, President; Ms. Sara Stephenson, Office Manager",
    "Principal Contacts": "Ms. Jan Stephenson, President",
    "Customer Contacts": "Ms. Sara Stephenson, Office Manager"
  },
  {
    "name": "Certified Contractors LLC",
    "rating": "BBB Rating: A+",
    "location": "9000 Maumee Western Rd, Monclova, OH 43542-9323",
    "phone": "(419) 467-0511",
    "link": "https://www.bbb.org/us/oh/monclova/profile/general-contractor/certified-contractors-llc-0422-90051203",
    "street": "9000 Maumee Western Rd",
    "city": "Monclova",
    "state": "OH",
    "zip": "43542-9323",
    "fullAddress": "9000 Maumee Western RdMonclova, OH 43542-9323",
    "email": "",
    "website": "",
    "websiteEmail": "",
    "phone1": "(419) 467-0511",
    "phone2": "(419) 467-7659",
    "Principal Contacts": "Mr. Paul Miller, Co-Owner",
    "Customer Contacts": "Mr. Paul Miller, Co-Owner; Mrs. Angela Miller, Co-Owner"
  },
  {
    "name": "G2 General Contractors",
    "rating": "BBB Rating: A+",
    "location": "2241 Redbud Blvd, McKinney, TX 75069",
    "phone": "(972) 569-7013",
    "link": "https://www.bbb.org/us/tx/mckinney/profile/general-contractor/g2-general-contractors-0875-90243617",
    "street": "2241 Redbud Blvd",
    "city": "McKinney",
    "state": "TX",
    "zip": "75069",
    "fullAddress": "2241 Redbud BlvdMcKinney, TX 75069",
    "email": "",
    "website": "https://www.g2generalcontractors.com/",
    "websiteEmail": "",
    "phone1": "(972) 569-7013",
    "Business Management:": "Mr. Greg Rice, Owner; Mrs. Kim Nixon, Office Manager",
    "Principal Contacts": "Mr. Greg Rice, Owner",
    "Customer Contacts": "Mr. Greg Rice, Owner; Mr. Andrew Griffin, Owner"
  },
  {
    "name": "Alpha Contractors LLC",
    "rating": "BBB Rating: A-",
    "location": "4481 Oleander Dr, Myrtle Beach, SC 29577-5837",
    "phone": "(843) 698-9332",
    "link": "https://www.bbb.org/us/sc/myrtle-beach/profile/roofing-contractors/alpha-contractors-llc-0593-90364800",
    "street": "4481 Oleander Dr",
    "city": "Myrtle Beach",
    "state": "SC",
    "zip": "29577-5837",
    "fullAddress": "4481 Oleander DrMyrtle Beach, SC 29577-5837",
    "email": "",
    "website": "https://thealphacontractors.com/",
    "websiteEmail": "",
    "phone1": "(843) 698-9332",
    "Business Management:": "Mr. Casey King, Owner / Co-Founder",
    "Principal Contacts": "Mr. Casey King, Owner / Co-Founder",
    "Customer Contacts": "Mr. Casey King, Owner / Co-Founder"
  },
  {
    "name": "GD Lowery Contractors",
    "rating": "",
    "location": "Dayton, OH 45424",
    "phone": "(937) 510-6088",
    "link": "https://www.bbb.org/us/oh/dayton/profile/roofing-contractors/gd-lowery-contractors-0322-30364",
    "street": "",
    "city": "Dayton",
    "state": "OH",
    "zip": "45424",
    "fullAddress": "Dayton, OH 45424",
    "email": "",
    "website": "https://www.facebook.com/GDLC-115201966693614",
    "websiteEmail": "",
    "phone1": "(937) 510-6088",
    "Business Management:": "Mr. Greg D. Lowery, Owner",
    "Principal Contacts": "Mr. Greg D. Lowery, Owner",
    "Customer Contacts": "Mr. Greg D. Lowery, Owner"
  },
  {
    "name": "Amish Contractors LLC",
    "rating": "BBB Rating: A+",
    "location": "PO Box 667, Washington, IN 47501",
    "phone": "(812) 698-3375",
    "link": "https://www.bbb.org/us/in/washington/profile/roofing-contractors/amish-contractors-llc-0482-90042584/addressId/37724",
    "street": "PO Box 667",
    "city": "Washington",
    "state": "IN",
    "zip": "47501",
    "fullAddress": "PO Box 667Washington, IN 47501",
    "email": "",
    "website": "",
    "websiteEmail": "",
    "phone1": "(812) 698-3375",
    "phone2": "(812) 787-1889",
    "Business Management:": "Mr. Marcus Graber, Owner",
    "Principal Contacts": "Mr. Marcus Graber, Owner",
    "Customer Contacts": "Mr. Marcus Graber, Owner"
  },
  {
    "name": "Coalition Restoration Contractors",
    "rating": "BBB Rating: A+",
    "location": "5700 Tennyson Pkwy STE 300, Plano, TX 75024-3595",
    "phone": "(469) 492-8344",
    "link": "https://www.bbb.org/us/tx/plano/profile/roofing-contractors/coalition-restoration-contractors-0875-91225773",
    "street": "5700 Tennyson Pkwy STE 300",
    "city": "Plano",
    "state": "TX",
    "zip": "75024-3595",
    "fullAddress": "5700 Tennyson Pkwy STE 300Plano, TX 75024-3595",
    "email": "",
    "website": "https://coalitionrestoration.com/",
    "websiteEmail": "",
    "phone1": "(469) 492-8344",
    "phone2": "(469) 929-9391",
    "Business Management:": "Mr. Miles Q. Williams, Member; Mr. David Barrett, Director of Operations",
    "Principal Contacts": "Mr. Miles Q. Williams, Member; Mr. Ashley N Ndukwu, Owner/Member",
    "Customer Contacts": "Mr. Miles Q. Williams, Member; Mr. Ashley N Ndukwu, Owner/Member"
  },
  {
    "name": "Stone Creek Contractors",
    "rating": "BBB Rating: A+",
    "location": "Chelsea, AL 35043-1434",
    "phone": "(205) 894-2526",
    "link": "https://www.bbb.org/us/al/chelsea/profile/roofing-contractors/stone-creek-contractors-0463-1000029575",
    "street": "",
    "city": "Chelsea",
    "state": "AL",
    "zip": "35043-1434",
    "fullAddress": "Chelsea, AL 35043-1434",
    "email": "",
    "website": "https://www.stonecreekcontractors.com/",
    "websiteEmail": "",
    "phone1": "(205) 894-2526"
  },
  {
    "name": "Heritage Restoration Contractors",
    "rating": "",
    "location": "5851 Legacy Cir STE 600, Plano, TX 75024-5969",
    "phone": "(469) 443-6468",
    "link": "https://www.bbb.org/us/tx/plano/profile/roofing-contractors/heritage-restoration-contractors-0875-90924848",
    "street": "5851 Legacy Cir STE 600",
    "city": "Plano",
    "state": "TX",
    "zip": "75024-5969",
    "fullAddress": "5851 Legacy Cir STE 600Plano, TX 75024-5969",
    "email": "",
    "website": "",
    "websiteEmail": "",
    "phone1": "(469) 443-6468",
    "Business Management:": "Ms. Louana Petreaca, Owner/LLC Managing Member",
    "Principal Contacts": "Ms. Louana Petreaca, Owner/LLC Managing Member",
    "Customer Contacts": "Ms. Louana Petreaca, Owner/LLC Managing Member"
  },
  {
    "name": "Good Contractors Roofing and Restoration",
    "rating": "BBB Rating: A",
    "location": "1617 Park Pl Ave Suite 110, Fort Worth, TX 76110",
    "phone": "(682) 842-7663",
    "link": "https://www.bbb.org/us/tx/fort-worth/profile/roofing-contractors/good-contractors-roofing-and-restoration-0825-1000212755",
    "street": "1617 Park Pl Ave Suite 110",
    "city": "Fort Worth",
    "state": "TX",
    "zip": "76110",
    "fullAddress": "1617 Park Pl Ave Suite 110Fort Worth, TX 76110",
    "email": "",
    "website": "https://goodcontractorsroofing.com/",
    "websiteEmail": "",
    "phone1": "(682) 842-7663",
    "Business Management:": "Mr. Ken Donaghy, Owner",
    "Principal Contacts": "Mr. Ken Donaghy, Owner",
    "Customer Contacts": "Mr. Ken Donaghy, Owner"
  },
  {
    "name": "WH Construction and Roofing Contractors",
    "rating": "BBB Rating: A+",
    "location": "9618 Jefferson Hwy STE D #101, Baton Rouge, LA 70809-9636",
    "phone": "(214) 532-0253",
    "link": "https://www.bbb.org/us/la/baton-rouge/profile/roofing-contractors/wh-construction-and-roofing-contractors-0875-90713388/addressId/115620",
    "street": "9618 Jefferson Hwy STE D #101",
    "city": "Baton Rouge",
    "state": "LA",
    "zip": "70809-9636",
    "fullAddress": "9618 Jefferson HwySTE D #101Baton Rouge, LA 70809-9636",
    "email": "",
    "website": "https://whconstructionandroofing.com/",
    "websiteEmail": "",
    "phone1": "(214) 532-0253",
    "Principal Contacts": "Mr. Mark Johns, Owner/Pesident",
    "Customer Contacts": "Mr. Mark Johns, Owner/Pesident"
  },
  {
    "name": "SLM General Contractors",
    "rating": "BBB Rating: A+",
    "location": "2150 S Central Expy Ste 200, McKinney, TX 75070-4000",
    "phone": "(469) 844-2300",
    "link": "https://www.bbb.org/us/tx/mckinney/profile/general-contractor/slm-general-contractors-0875-90559309",
    "street": "2150 S Central Expy Ste 200",
    "city": "McKinney",
    "state": "TX",
    "zip": "75070-4000",
    "fullAddress": "2150 S Central Expy Ste 200McKinney, TX 75070-4000",
    "email": "",
    "website": "https://www.slmgc.com/",
    "websiteEmail": "",
    "phone1": "(469) 844-2300",
    "Business Management:": "Mr. Sergio Maldonado, President; Ms. Jessica Garcia, Office Manager",
    "Principal Contacts": "Mr. Sergio Maldonado, President",
    "Customer Contacts": "Mr. Sergio Maldonado, President; Ms. Jessica Garcia, Office Manager"
  },
  {
    "name": "Contractors Inc. - Houston",
    "rating": "BBB Rating: A+",
    "location": "Houston, TX 77075",
    "phone": "(614) 444-7663",
    "link": "https://www.bbb.org/us/tx/houston/profile/roofing-contractors/contractors-inc-houston-0915-90049480/addressId/157249",
    "street": "",
    "city": "Houston",
    "state": "TX",
    "zip": "77075",
    "fullAddress": "Houston, TX 77075-4857",
    "email": "",
    "website": "https://www.cranerenovationgroup.com/",
    "websiteEmail": "",
    "phone1": "(614) 444-7663",
    "Customer Contacts": "Ms. Cheryl Cox, Director of Customer Service"
  },
  {
    "name": "Roof Time Contractors",
    "rating": "BBB Rating: A+",
    "location": "-----, Austin, TX 78752",
    "phone": "(512) 266-6166",
    "link": "https://www.bbb.org/us/tx/austin/profile/roofing-contractors/roof-time-contractors-0825-90014523/addressId/168348",
    "street": "-----",
    "city": "Austin",
    "state": "TX",
    "zip": "78752",
    "fullAddress": "-----Austin, TX 78752",
    "email": "",
    "website": "https://www.rooftimegc.com/",
    "websiteEmail": "",
    "phone1": "(512) 266-6166",
    "phone2": "(361) 929-9000",
    "Business Management:": "Ms. Joann Needham, Regional Manager; Mr. Brad Jones, President",
    "Principal Contacts": "Mr. Brad Jones, President",
    "Customer Contacts": "Mr. Brad Jones, President"
  },
  {
    "name": "MP General Contractors",
    "rating": "BBB Rating: A+",
    "location": "Chicago, IL 60651-2009",
    "phone": "(773) 629-1562",
    "link": "https://www.bbb.org/us/il/chicago/profile/general-contractor/mp-general-contractors-0654-90005455",
    "street": "",
    "city": "Chicago",
    "state": "IL",
    "zip": "60651-2009",
    "fullAddress": "Chicago, IL 60651-2009",
    "email": "",
    "website": "https://www.mpgcontractors.com/",
    "websiteEmail": "",
    "phone1": "(773) 629-1562",
    "Business Management:": "Mariana Pitalua, Owner",
    "Principal Contacts": "Mariana Pitalua, Owner",
    "Customer Contacts": "Mariana Pitalua, Owner; Mr. Victor Ramirez, Owner/Partner"
  },
  {
    "name": "Jade Remodeling Contractors",
    "rating": "BBB Rating: A+",
    "location": "7600 Williams Ave, Saint Louis, MO 63143-1222",
    "phone": "(314) 583-4660",
    "link": "https://www.bbb.org/us/mo/saint-louis/profile/home-builders/jade-remodeling-contractors-0734-310247072",
    "street": "7600 Williams Ave",
    "city": "Saint Louis",
    "state": "MO",
    "zip": "63143-1222",
    "fullAddress": "7600 Williams AveSaint Louis, MO 63143-1222",
    "email": "",
    "website": "",
    "websiteEmail": "",
    "phone1": "(314) 583-4660",
    "Business Management:": "Dawn Castillo, Vice President; Elio A Castillo, President",
    "Principal Contacts": "Elio A Castillo, President",
    "Customer Contacts": "Elio A Castillo, President"
  },
  {
    "name": "4B General Contractors",
    "rating": "BBB Rating: A+",
    "location": "1100 Valley View Dr, Ennis, TX 75119-8036",
    "phone": "(214) 536-9601",
    "link": "https://www.bbb.org/us/tx/ennis/profile/general-contractor/4b-general-contractors-0875-91029203",
    "street": "1100 Valley View Dr",
    "city": "Ennis",
    "state": "TX",
    "zip": "75119-8036",
    "fullAddress": "1100 Valley View DrEnnis, TX 75119-8036",
    "email": "",
    "website": "https://www.facebook.com/4B-General-Contractors-364934620552303/",
    "websiteEmail": "",
    "phone1": "(214) 536-9601",
    "Business Management:": "Mr. Gedra Burden, Owner/Manager; Ms. Lisa Burden, Governing Person",
    "Principal Contacts": "Mr. Gedra Burden, Owner/Manager; Ms. Lisa Burden, Governing Person",
    "Customer Contacts": "Mr. Gedra Burden, Owner/Manager; Ms. Lisa Burden, Governing Person"
  },
  {
    "name": "M LaPlant Contractors",
    "rating": "BBB Rating: A+",
    "location": "1132 S. 8th Street, Sheboygan, WI 53081",
    "phone": "(920) 287-3480",
    "link": "https://www.bbb.org/us/wi/sheboygan/profile/construction-services/m-laplant-contractors-0694-15017043",
    "street": "1132 S. 8th Street",
    "city": "Sheboygan",
    "state": "WI",
    "zip": "53081",
    "fullAddress": "1132 S. 8th StreetSheboygan, WI 53081",
    "email": "",
    "website": "",
    "websiteEmail": "",
    "phone1": "(920) 287-3480",
    "phone2": "(800) 257-7286",
    "Business Management:": "Mr. Maurice LaPlant, Owner",
    "Principal Contacts": "Mr. Maurice LaPlant, Owner",
    "Customer Contacts": "Mr. Maurice LaPlant, Owner"
  },
  {
    "name": "Heritage Restoration Contractors",
    "rating": "",
    "location": "5851 Legacy Cir STE 600, Plano, TX 75024-5969",
    "phone": "(469) 443-6468",
    "link": "https://www.bbb.org/us/tx/plano/profile/roofing-contractors/heritage-restoration-contractors-0875-90924848",
    "street": "5851 Legacy Cir STE 600",
    "city": "Plano",
    "state": "TX",
    "zip": "75024-5969",
    "fullAddress": "5851 Legacy Cir STE 600Plano, TX 75024-5969",
    "email": "",
    "website": "",
    "websiteEmail": "",
    "phone1": "(469) 443-6468",
    "Business Management:": "Ms. Louana Petreaca, Owner/LLC Managing Member",
    "Principal Contacts": "Ms. Louana Petreaca, Owner/LLC Managing Member",
    "Customer Contacts": "Ms. Louana Petreaca, Owner/LLC Managing Member"
  },
  {
    "name": "CKW & Son's Contractors",
    "rating": "",
    "location": "1508 Park Chase Ave, Arlington, TX 76011-2741",
    "phone": "(817) 714-1846",
    "link": "https://www.bbb.org/us/tx/arlington/profile/general-contractor/ckw-sons-contractors-0825-235975421",
    "street": "1508 Park Chase Ave",
    "city": "Arlington",
    "state": "TX",
    "zip": "76011-2741",
    "fullAddress": "1508 Park Chase AveArlington, TX 76011-2741",
    "email": "",
    "website": "",
    "websiteEmail": "",
    "phone1": "(817) 714-1846",
    "Business Management:": "Mr. Cortney K. Walker, Owner",
    "Principal Contacts": "Mr. Cortney K. Walker, Owner",
    "Customer Contacts": "Mr. Cortney K. Walker, Owner"
  },
  {
    "name": "55 South Contractors",
    "rating": "BBB Rating: A",
    "location": "Saint Louis, MO 63138-2341",
    "phone": "(314) 800-9152",
    "link": "https://www.bbb.org/us/mo/saint-louis/profile/home-improvement/55-south-contractors-0734-1000046257",
    "street": "",
    "city": "Saint Louis",
    "state": "MO",
    "zip": "63138-2341",
    "fullAddress": "Saint Louis, MO 63138-2341",
    "email": "",
    "website": "https://www.facebook.com/people/55-South-Contractors/61550928122415/",
    "websiteEmail": "",
    "phone1": "(314) 800-9152",
    "Business Management:": "Larry D Freeman Jr., Owner",
    "Principal Contacts": "Larry D Freeman Jr., Owner",
    "Customer Contacts": "Larry D Freeman Jr., Owner"
  },
  {
    "name": "Reroof America Contractors",
    "rating": "",
    "location": "1521 Kuebel St Ste C, Harahan, LA 70123-6967",
    "phone": "(504) 734-2234",
    "link": "https://www.bbb.org/us/la/harahan/profile/roofing-contractors/reroof-america-contractors-0523-181051479/addressId/2123",
    "street": "1521 Kuebel St Ste C",
    "city": "Harahan",
    "state": "LA",
    "zip": "70123-6967",
    "fullAddress": "1521 Kuebel St Ste CHarahan, LA 70123-6967",
    "email": "",
    "website": "https://www.reroofamerica.com/",
    "websiteEmail": "",
    "phone1": "(601) 924-1829",
    "phone2": "(504) 734-2234",
    "Business Management:": "Mr. Mitchell Wilbanks, Regional Manager",
    "Customer Contacts": "Mr. Mitchell Wilbanks, Regional Manager"
  },
  {
    "name": "Starwood General Contractors",
    "rating": "BBB Rating: A+",
    "location": "6160 Warren Pkwy Ste 100, Frisco, TX 75034-9415",
    "phone": "(469) 768-3533",
    "link": "https://www.bbb.org/us/tx/frisco/profile/general-contractor/starwood-general-contractors-0875-91348402",
    "street": "6160 Warren Pkwy Ste 100",
    "city": "Frisco",
    "state": "TX",
    "zip": "75034-9415",
    "fullAddress": "6160 Warren Pkwy Ste 100Frisco, TX 75034-9415",
    "email": "",
    "website": "https://starwoodgeneral.com/",
    "websiteEmail": "",
    "phone1": "(469) 768-3533",
    "phone2": "(469) 753-1352",
    "Business Management:": "Mr. Luis Cortez, General Manager; Mr. Eric Eichelmann, Managing Member",
    "Principal Contacts": "Mr. Luis Cortez, General Manager; Mr. Eric Eichelmann, Managing Member",
    "Customer Contacts": "Mr. Luis Cortez, General Manager; Mr. Eric Eichelmann, Managing Member"
  },
  {
    "name": "Good Contractors Roofing and Restoration",
    "rating": "BBB Rating: A",
    "location": "1617 Park Pl Ave Suite 110, Fort Worth, TX 76110",
    "phone": "(682) 842-7663",
    "link": "https://www.bbb.org/us/tx/fort-worth/profile/roofing-contractors/good-contractors-roofing-and-restoration-0825-1000212755",
    "street": "1617 Park Pl Ave Suite 110",
    "city": "Fort Worth",
    "state": "TX",
    "zip": "76110",
    "fullAddress": "1617 Park Pl Ave Suite 110Fort Worth, TX 76110",
    "email": "",
    "website": "https://goodcontractorsroofing.com/",
    "websiteEmail": "",
    "phone1": "(682) 842-7663",
    "Business Management:": "Mr. Ken Donaghy, Owner",
    "Principal Contacts": "Mr. Ken Donaghy, Owner",
    "Customer Contacts": "Mr. Ken Donaghy, Owner"
  },
  {
    "name": "WH Construction and Roofing Contractors",
    "rating": "BBB Rating: A+",
    "location": "9618 Jefferson Hwy STE D #101, Baton Rouge, LA 70809-9636",
    "phone": "(214) 532-0253",
    "link": "https://www.bbb.org/us/la/baton-rouge/profile/roofing-contractors/wh-construction-and-roofing-contractors-0875-90713388/addressId/115620",
    "street": "9618 Jefferson Hwy STE D #101",
    "city": "Baton Rouge",
    "state": "LA",
    "zip": "70809-9636",
    "fullAddress": "9618 Jefferson HwySTE D #101Baton Rouge, LA 70809-9636",
    "email": "",
    "website": "https://whconstructionandroofing.com/",
    "websiteEmail": "",
    "phone1": "(214) 532-0253",
    "Principal Contacts": "Mr. Mark Johns, Owner/Pesident",
    "Customer Contacts": "Mr. Mark Johns, Owner/Pesident"
  },
  {
    "name": "RO General Contractors",
    "rating": "BBB Rating: A+",
    "location": "2497 Westbrook Dr, Franklin Park, IL 60131-3242",
    "phone": "(443) 205-3012",
    "link": "https://www.bbb.org/us/il/franklin-park/profile/general-contractor/ro-general-contractors-0654-1000034031",
    "street": "2497 Westbrook Dr",
    "city": "Franklin Park",
    "state": "IL",
    "zip": "60131-3242",
    "fullAddress": "2497 Westbrook DrFranklin Park, IL 60131-3242",
    "email": "",
    "website": "https://www.rogeneralcontractors.com/",
    "websiteEmail": "",
    "phone1": "(443) 205-3012",
    "Business Management:": "Mr. Andrei Bucur, Manager",
    "Principal Contacts": "Mr. Andrei Bucur, Manager",
    "Customer Contacts": "Mr. Andrei Bucur, Manager"
  },
  {
    "name": "Bar H Contractors",
    "rating": "BBB Rating: A+",
    "location": "Stephenville, TX 76401",
    "phone": "(254) 655-6787",
    "link": "https://www.bbb.org/us/tx/stephenville/profile/roofing-contractors/bar-h-contractors-0825-1000224465",
    "street": "",
    "city": "Stephenville",
    "state": "TX",
    "zip": "76401",
    "fullAddress": "Stephenville, TX 76401",
    "email": "",
    "website": "https://barhroofing.com/",
    "websiteEmail": "",
    "phone1": "(254) 655-6787",
    "Business Management:": "Mr. Coley Howell, President",
    "Principal Contacts": "Mr. Coley Howell, President",
    "Customer Contacts": "Mr. Coley Howell, President"
  },
  {
    "name": "Blue Ox Contractors",
    "rating": "BBB Rating: A+",
    "location": "1680 Duello Rd, Lake St Louis, MO 63367-4417",
    "phone": "(314) 303-3065",
    "link": "https://www.bbb.org/us/mo/lake-st-louis/profile/roofing-contractors/blue-ox-contractors-0734-1000034119",
    "street": "1680 Duello Rd",
    "city": "Lake St Louis",
    "state": "MO",
    "zip": "63367-4417",
    "fullAddress": "1680 Duello RdLake St Louis, MO 63367-4417",
    "email": "",
    "website": "https://blueoxcontractors.com/",
    "websiteEmail": "",
    "phone1": "(314) 303-3065",
    "phone2": "(314) 229-1970",
    "phone3": "(636) 293-9238",
    "Business Management:": "Alena Gray, Co-Owner; Ryan Gray, Owner",
    "Principal Contacts": "Alena Gray, Co-Owner; Ryan Gray, Owner",
    "Customer Contacts": "Alena Gray, Co-Owner; Ryan Gray, Owner"
  },
  {
    "name": "SPU General Contractors",
    "rating": "",
    "location": "902 S Randall Rd, St Charles, IL 60174-1781",
    "phone": "(847) 344-8649",
    "link": "https://www.bbb.org/us/il/st-charles/profile/general-contractor/spu-general-contractors-0654-90025007",
    "street": "902 S Randall Rd",
    "city": "St Charles",
    "state": "IL",
    "zip": "60174-1781",
    "fullAddress": "902 S Randall RdSt Charles, IL 60174-1781",
    "email": "",
    "website": "https://www.spugc.com/",
    "websiteEmail": "",
    "phone1": "(847) 344-8649",
    "Business Management:": "Mr. Steve Case, CEO/Owner",
    "Principal Contacts": "Mr. Steve Case, CEO/Owner",
    "Customer Contacts": "Mr. Steve Case, CEO/Owner"
  },
  {
    "name": "Atlas General Contractors",
    "rating": "BBB Rating: A+",
    "location": "40W124 Campton Crossings Dr, St Charles, IL 60175-6583",
    "phone": "(630) 724-7884",
    "link": "https://www.bbb.org/us/il/st-charles/profile/general-contractor/atlas-general-contractors-0654-90017493",
    "street": "40W124 Campton Crossings Dr",
    "city": "St Charles",
    "state": "IL",
    "zip": "60175-6583",
    "fullAddress": "40W124 Campton Crossings DrSt Charles, IL 60175-6583",
    "email": "",
    "website": "https://atlasgeneralcontractors.com/",
    "websiteEmail": "",
    "phone1": "(630) 724-7884",
    "Business Management:": "Mr. Gary Paris, Owner; Ms. Tavia Paris, Corporate Manager",
    "Principal Contacts": "Mr. Gary Paris, Owner; Ms. Tavia Paris, Corporate Manager"
  },
  {
    "name": "RO General Contractors",
    "rating": "BBB Rating: A+",
    "location": "2497 Westbrook Dr, Franklin Park, IL 60131-3242",
    "phone": "(443) 205-3012",
    "link": "https://www.bbb.org/us/il/franklin-park/profile/general-contractor/ro-general-contractors-0654-1000034031",
    "street": "2497 Westbrook Dr",
    "city": "Franklin Park",
    "state": "IL",
    "zip": "60131-3242",
    "fullAddress": "2497 Westbrook DrFranklin Park, IL 60131-3242",
    "email": "",
    "website": "https://www.rogeneralcontractors.com/",
    "websiteEmail": "",
    "phone1": "(443) 205-3012",
    "Business Management:": "Mr. Andrei Bucur, Manager",
    "Principal Contacts": "Mr. Andrei Bucur, Manager",
    "Customer Contacts": "Mr. Andrei Bucur, Manager"
  },
  {
    "name": "MDG Contractors Group",
    "rating": "BBB Rating: D-",
    "location": "Columbus, OH 43227-1915",
    "phone": "(614) 963-9902",
    "link": "https://www.bbb.org/us/oh/columbus/profile/home-improvement/mdg-contractors-group-0302-70129939",
    "street": "",
    "city": "Columbus",
    "state": "OH",
    "zip": "43227-1915",
    "fullAddress": "Columbus, OH 43227-1915",
    "email": "",
    "website": "https://generalcontractorcolumbus.com/",
    "websiteEmail": "",
    "phone1": "(614) 963-9902",
    "phone2": "(614) 284-6392",
    "Business Management:": "Mr. Jose T Briceno, Owner",
    "Principal Contacts": "Mr. Jose T Briceno, Owner",
    "Customer Contacts": "Mr. Jose T Briceno, Owner"
  },
  {
    "name": "Exclusive Roofing and General Contractors",
    "rating": "BBB Rating: A-",
    "location": "5700 Tennyson Pkwy Ste 300 # 69, Plano, TX 75024-3595",
    "phone": "(469) 460-1628",
    "link": "https://www.bbb.org/us/tx/plano/profile/roofing-contractors/exclusive-roofing-and-general-contractors-0875-91346035",
    "street": "5700 Tennyson Pkwy Ste 300 # 69",
    "city": "Plano",
    "state": "TX",
    "zip": "75024-3595",
    "fullAddress": "5700 Tennyson Pkwy Ste 300 # 69Plano, TX 75024-3595",
    "email": "",
    "website": "https://exclusiveroofinggc.com/",
    "websiteEmail": "",
    "phone1": "(469) 460-1628",
    "Business Management:": "Ms. Jasmine Elsayed, General Manager",
    "Principal Contacts": "Mr. Christopher R Donath, Director",
    "Customer Contacts": "Ms. Jasmine Elsayed, General Manager; Mr. Christopher R Donath, Director"
  },
  {
    "name": "SPU General Contractors",
    "rating": "",
    "location": "902 S Randall Rd, St Charles, IL 60174-1781",
    "phone": "(847) 344-8649",
    "link": "https://www.bbb.org/us/il/st-charles/profile/general-contractor/spu-general-contractors-0654-90025007",
    "street": "902 S Randall Rd",
    "city": "St Charles",
    "state": "IL",
    "zip": "60174-1781",
    "fullAddress": "902 S Randall RdSt Charles, IL 60174-1781",
    "email": "",
    "website": "https://www.spugc.com/",
    "websiteEmail": "",
    "phone1": "(847) 344-8649",
    "Business Management:": "Mr. Steve Case, CEO/Owner",
    "Principal Contacts": "Mr. Steve Case, CEO/Owner",
    "Customer Contacts": "Mr. Steve Case, CEO/Owner"
  },
  {
    "name": "Great Again Roofing and Contractors",
    "rating": "BBB Rating: A+",
    "location": "301 McCullough Dr Ste 400, Charlotte, NC 28262-1336",
    "phone": "(704) 802-2011",
    "link": "https://www.bbb.org/us/nc/charlotte/profile/roofing-contractors/great-again-roofing-and-contractors-0473-92021601",
    "street": "301 McCullough Dr Ste 400",
    "city": "Charlotte",
    "state": "NC",
    "zip": "28262-1336",
    "fullAddress": "301 McCullough Dr Ste 400Charlotte, NC 28262-1336",
    "email": "",
    "website": "https://www.greatagainroofing.net/",
    "websiteEmail": "",
    "phone1": "(704) 802-2011",
    "phone2": "(984) 224-7328",
    "Business Management:": "Mr. Nathaniel Jackson, President",
    "Principal Contacts": "Mr. Nathaniel Jackson, President",
    "Customer Contacts": "Mr. Nathaniel Jackson, President"
  },
  {
    "name": "Reroof America Contractors",
    "rating": "",
    "location": "5720A Highway 80 W, Jackson, MS 39209",
    "phone": "(601) 924-1829",
    "link": "https://www.bbb.org/us/ms/jackson/profile/roofing-contractors/reroof-america-contractors-0523-181051479",
    "street": "5720A Highway 80 W",
    "city": "Jackson",
    "state": "MS",
    "zip": "39209",
    "fullAddress": "5720A Highway 80 WJackson, MS 39209",
    "email": "",
    "website": "https://www.reroofamerica.com/",
    "websiteEmail": "",
    "phone1": "(601) 924-1829",
    "phone2": "(504) 734-2234",
    "Business Management:": "Mr. Mitchell Wilbanks, Regional Manager",
    "Customer Contacts": "Mr. Mitchell Wilbanks, Regional Manager"
  },
  {
    "name": "R and R Contractors",
    "rating": "BBB Rating: A+",
    "location": "3593 Hwy 316, Gray, LA 70359",
    "phone": "(985) 438-1527",
    "link": "https://www.bbb.org/us/la/gray/profile/building-contractors/r-and-r-contractors-0985-80009545/addressId/83850",
    "street": "3593 Hwy 316",
    "city": "Gray",
    "state": "LA",
    "zip": "70359",
    "fullAddress": "",
    "email": "",
    "website": "",
    "websiteEmail": ""
  },
  {
    "name": "MTR Contractors Inc",
    "rating": "BBB Rating: A+",
    "location": "1647 Witt Rd STE 102, Frisco, TX 75036-8780",
    "phone": "(972) 432-7011",
    "link": "https://www.bbb.org/us/tx/frisco/profile/general-contractor/mtr-contractors-inc-0875-90464752",
    "street": "1647 Witt Rd STE 102",
    "city": "Frisco",
    "state": "TX",
    "zip": "75036-8780",
    "fullAddress": "1647 Witt Rd STE 102Frisco, TX 75036-8780",
    "email": "",
    "website": "https://www.mtrcontractors.com/",
    "websiteEmail": "",
    "phone1": "(972) 432-7011",
    "Business Management:": "Ms. Daniella Angarita, Office Manager/Director; Mr. Alberto Angarita, President/Director; Mrs. Belkis Rocio Angarita, Director",
    "Principal Contacts": "Ms. Daniella Angarita, Office Manager/Director; Mr. Alberto Angarita, President/Director; Mrs. Belkis Rocio Angarita, Director",
    "Customer Contacts": "Ms. Daniella Angarita, Office Manager/Director; Mr. Alberto Angarita, President/Director; Mrs. Belkis Rocio Angarita, Director"
  },
  {
    "name": "Birdland General Contractors",
    "rating": "BBB Rating: A+",
    "location": "Reisterstown, MD 21136",
    "phone": "(443) 577-6877",
    "link": "https://www.bbb.org/us/md/reisterstown/profile/general-contractor/birdland-general-contractors-0011-90374372",
    "street": "",
    "city": "Reisterstown",
    "state": "MD",
    "zip": "21136",
    "fullAddress": "Reisterstown, MD 21136",
    "email": "",
    "website": "https://birdlandgeneralcontractors.com/",
    "websiteEmail": "",
    "phone1": "(443) 577-6877",
    "Business Management:": "Mr. Pedro Rodriguez, Owner",
    "Principal Contacts": "Mr. Pedro Rodriguez, Owner",
    "Customer Contacts": "Mr. Pedro Rodriguez, Owner"
  },
  {
    "name": "R and R Contractors",
    "rating": "BBB Rating: A+",
    "location": "PO Box 1352, Gray, LA 70359",
    "phone": "(985) 438-1527",
    "link": "https://www.bbb.org/us/la/gray/profile/building-contractors/r-and-r-contractors-0985-80009545",
    "street": "PO Box 1352",
    "city": "Gray",
    "state": "LA",
    "zip": "70359",
    "fullAddress": "PO Box 1352Gray, LA 70359",
    "email": "",
    "website": "",
    "websiteEmail": "",
    "phone1": "(985) 438-1527",
    "Business Management:": "Mr. Ronald Rainey, Principal",
    "Principal Contacts": "Mr. Ronald Rainey, Principal",
    "Customer Contacts": "Mr. Ronald Rainey, Principal"
  },
  {
    "name": "Joe Percario General Contractors",
    "rating": "BBB Rating: A+",
    "location": "1259 Saint George Ave, Roselle, NJ 07203-4800",
    "phone": "(908) 245-1071",
    "link": "https://www.bbb.org/us/nj/roselle/profile/general-contractor/joe-percario-general-contractors-0221-9003282",
    "street": "1259 Saint George Ave",
    "city": "Roselle",
    "state": "NJ",
    "zip": "07203-4800",
    "fullAddress": "1259 Saint George AveRoselle, NJ 07203-4800",
    "email": "",
    "website": "https://www.percario.com/",
    "websiteEmail": "",
    "phone1": "(908) 245-1071",
    "phone2": "(973) 504-6200",
    "Business Management:": "Mr. Joseph Percario, Owner; Mr. Dominic Percario, President",
    "Principal Contacts": "Mr. Joseph Percario, Owner; Mr. Dominic Percario, President",
    "Customer Contacts": "Mr. Dominic Percario, President"
  },
  {
    "name": "Soul Contractors Incorporated",
    "rating": "BBB Rating: A+",
    "location": "937 Lazywood Ln, Shreveport, LA 71108-5911",
    "phone": "(318) 686-5381",
    "link": "https://www.bbb.org/us/la/shreveport/profile/roofing-contractors/soul-contractors-incorporated-1015-6002603",
    "street": "937 Lazywood Ln",
    "city": "Shreveport",
    "state": "LA",
    "zip": "71108-5911",
    "fullAddress": "937 Lazywood LnShreveport, LA 71108-5911",
    "email": "",
    "website": "https://www.vyronbrown.com/page/page/4574954.htm",
    "websiteEmail": "",
    "phone1": "(318) 686-5381",
    "phone2": "(318) 210-3219",
    "phone3": "(318) 262-7982",
    "Principal Contacts": "Mr. Vyron Brown, Owner",
    "Customer Contacts": "Mr. Vyron Brown, Owner"
  },
  {
    "name": "West Central Roofing Contractors Inc",
    "rating": "BBB Rating: A+",
    "location": "4030 Highway 71 NE, Willmar, MN 56201",
    "phone": "(320) 235-8748",
    "link": "https://www.bbb.org/us/mn/willmar/profile/roofing-contractors/west-central-roofing-contractors-inc-0704-96593475",
    "street": "4030 Highway 71 NE",
    "city": "Willmar",
    "state": "MN",
    "zip": "56201",
    "fullAddress": "4030 Highway 71 NEWillmar, MN 56201",
    "email": "",
    "website": "",
    "websiteEmail": "",
    "phone1": "(320) 235-8748",
    "Business Management:": "Kelvin Torkelson",
    "Principal Contacts": "Kelvin Torkelson",
    "Customer Contacts": "Kelvin Torkelson"
  },
  {
    "name": "West Central Roofing Contractors Inc",
    "rating": "BBB Rating: A+",
    "location": "Po Box 1292, Willmar, MN 56201",
    "phone": "(320) 235-8748",
    "link": "https://www.bbb.org/us/mn/willmar/profile/roofing-contractors/west-central-roofing-contractors-inc-0704-96593475/addressId/272344",
    "street": "Po Box 1292",
    "city": "Willmar",
    "state": "MN",
    "zip": "56201",
    "fullAddress": "Po Box 1292Willmar, MN 56201",
    "email": "",
    "website": "",
    "websiteEmail": "",
    "phone1": "(320) 235-8748",
    "Business Management:": "Kelvin Torkelson",
    "Principal Contacts": "Kelvin Torkelson",
    "Customer Contacts": "Kelvin Torkelson"
  },
  {
    "name": "Roofing Contractors",
    "rating": "",
    "location": "1615 Manor St, Mckeesport, PA 15132",
    "phone": "(412) 844-1492",
    "link": "https://www.bbb.org/us/pa/mckeesport/profile/roofing-contractors/roofing-contractors-0141-71129238",
    "street": "1615 Manor St",
    "city": "Mckeesport",
    "state": "PA",
    "zip": "15132",
    "fullAddress": "1615 Manor StMckeesport, PA 15132",
    "email": "",
    "website": "",
    "websiteEmail": "",
    "phone1": "(412) 844-1492"
  },
  {
    "name": "Eco General Contractors",
    "rating": "BBB Rating: B-",
    "location": "Irving, TX 75039-5729",
    "phone": "(972) 765-7768",
    "link": "https://www.bbb.org/us/tx/irving/profile/general-contractor/eco-general-contractors-0875-90244322",
    "street": "",
    "city": "Irving",
    "state": "TX",
    "zip": "75039-5729",
    "fullAddress": "Irving, TX 75039-5729",
    "email": "",
    "website": "https://www.ecogc.net/",
    "websiteEmail": "",
    "phone1": "(972) 765-7768",
    "Business Management:": "Mr. Richard Lack, Owner",
    "Principal Contacts": "Mr. Richard Lack, Owner",
    "Customer Contacts": "Mr. Richard Lack, Owner"
  },
  {
    "name": "Wisconsin Roofing Contractors Association, Inc.",
    "rating": "BBB Rating: A+",
    "location": "PO Box 833, Germantown, WI 53022-0833",
    "phone": "(888) 782-6815",
    "link": "https://www.bbb.org/us/wi/germantown/profile/business-associations/wisconsin-roofing-contractors-association-inc-0694-14003991",
    "street": "PO Box 833",
    "city": "Germantown",
    "state": "WI",
    "zip": "53022-0833",
    "fullAddress": "PO Box 833Germantown, WI 53022-0833",
    "email": "",
    "website": "https://www.wrcaonline.org/",
    "websiteEmail": "",
    "phone1": "(888) 782-6815",
    "Business Management:": "Mr. Jeffrey J. Beiriger, Executive Director",
    "Principal Contacts": "Mr. Jeffrey J. Beiriger, Executive Director",
    "Customer Contacts": "Mr. Jeffrey J. Beiriger, Executive Director"
  },
  {
    "name": "Southeast Contractors LLC",
    "rating": "BBB Rating: A+",
    "location": "3805 E 6750 S 39, Price, UT 84501-8611",
    "phone": "(435) 637-8039",
    "link": "https://www.bbb.org/us/ut/price/profile/roofing-contractors/southeast-contractors-llc-1166-90014488",
    "street": "3805 E 6750 S 39",
    "city": "Price",
    "state": "UT",
    "zip": "84501-8611",
    "fullAddress": "3805 E 6750 S 39Price, UT 84501-8611",
    "email": "",
    "website": "",
    "websiteEmail": "",
    "phone1": "(435) 637-8039",
    "phone2": "(435) 631-4100",
    "Business Management:": "Mr. Jay Daugherty, Owner",
    "Principal Contacts": "Mr. Jay Daugherty, Owner",
    "Customer Contacts": "Mr. Jay Daugherty, Owner"
  },
  {
    "name": "Advance Painting and Roofing Contractors",
    "rating": "BBB Rating: A+",
    "location": "4215 Stuart Andrew Blvd STE J, Charlotte, NC 28217-1586",
    "phone": "(704) 529-8405",
    "link": "https://www.bbb.org/us/nc/charlotte/profile/painting-contractors/advance-painting-and-roofing-contractors-0473-117908",
    "street": "4215 Stuart Andrew Blvd STE J",
    "city": "Charlotte",
    "state": "NC",
    "zip": "28217-1586",
    "fullAddress": "4215 Stuart Andrew Blvd STE JCharlotte, NC 28217-1586",
    "email": "",
    "website": "https://advancecontractorsnc.com/",
    "websiteEmail": "",
    "phone1": "(704) 529-8405",
    "phone2": "(704) 266-3365",
    "Business Management:": "Mr. Mitchell Fogel, Managing Partner; Mr. Luis Arroyo, Managing Partner; Ms. Brandi Hunt, Office Manager",
    "Principal Contacts": "Mr. Mitchell Fogel, Managing Partner",
    "Customer Contacts": "Mr. Mitchell Fogel, Managing Partner; Mr. Luis Arroyo, Managing Partner; Ms. Brandi Hunt, Office Manager"
  },
  {
    "name": "A.T.C. Contractors Inc.",
    "rating": "BBB Rating: A+",
    "location": "4611 Central Avenue Pike Ste K, Knoxville, TN 37912-4001",
    "phone": "(865) 919-4664",
    "link": "https://www.bbb.org/us/tn/knoxville/profile/roofing-contractors/atc-contractors-inc-0533-90001680",
    "street": "4611 Central Avenue Pike Ste K",
    "city": "Knoxville",
    "state": "TN",
    "zip": "37912-4001",
    "fullAddress": "4611 Central Avenue Pike Ste KKnoxville, TN 37912-4001",
    "email": "",
    "website": "https://www.roofing-knoxville.com/",
    "websiteEmail": "",
    "phone1": "(865) 919-4664",
    "phone2": "(865) 217-1157",
    "phone3": "(800) 544-7693",
    "Business Management:": "Mr. Ray Ferguson, President; Ms. Kelsy Henderson, Office Manager",
    "Principal Contacts": "Mr. Ray Ferguson, President",
    "Customer Contacts": "Mr. Ray Ferguson, President"
  },
  {
    "name": "R M Proy Contractors",
    "rating": "BBB Rating: A+",
    "location": "217 Kenton Pl, Hamburg, NY 14075-4309",
    "phone": "(716) 649-4560",
    "link": "https://www.bbb.org/us/ny/hamburg/profile/roofing-contractors/r-m-proy-contractors-0041-67",
    "street": "217 Kenton Pl",
    "city": "Hamburg",
    "state": "NY",
    "zip": "14075-4309",
    "fullAddress": "217 Kenton PlHamburg, NY 14075-4309",
    "email": "",
    "website": "https://www.rmproycontractors.com/",
    "websiteEmail": "",
    "phone1": "(716) 649-4560",
    "phone2": "(716) 662-4116",
    "Business Management:": "Mr. Richard M Proy, Owner",
    "Principal Contacts": "Mr. Richard M Proy, Owner",
    "Customer Contacts": "Mr. Richard M Proy, Owner"
  },
  {
    "name": "BRD Roofing/Contractors",
    "rating": "BBB Rating: A+",
    "location": "Crowley, TX 76036-5745",
    "phone": "(817) 760-1159",
    "link": "https://www.bbb.org/us/tx/crowley/profile/roofing-contractors/brd-roofingcontractors-0825-1000188717",
    "street": "",
    "city": "Crowley",
    "state": "TX",
    "zip": "76036-5745",
    "fullAddress": "Crowley, TX 76036-5745",
    "email": "",
    "website": "https://www.brd-roofing.com/",
    "websiteEmail": "",
    "phone1": "(817) 760-1159",
    "Business Management:": "Mr. Brent Denbow, Owner",
    "Principal Contacts": "Mr. Brent Denbow, Owner",
    "Customer Contacts": "Mr. Brent Denbow, Owner"
  },
  {
    "name": "Lone Star Roofing & General Contractors",
    "rating": "BBB Rating: A",
    "location": "4925 Greenville Ave Ste 200, Dallas, TX 75206-0500",
    "phone": "(972) 469-1102",
    "link": "https://www.bbb.org/us/tx/dallas/profile/roofing-contractors/lone-star-roofing-general-contractors-0875-91336148",
    "street": "4925 Greenville Ave Ste 200",
    "city": "Dallas",
    "state": "TX",
    "zip": "75206-0500",
    "fullAddress": "4925 Greenville Ave Ste 200Dallas, TX 75206-0500",
    "email": "",
    "website": "https://www.lonestarroofinggc.com/",
    "websiteEmail": "",
    "phone1": "(972) 469-1102",
    "Business Management:": "Mr. Mario Martinez, Owner/Managing Member",
    "Principal Contacts": "Mr. Mario Martinez, Owner/Managing Member",
    "Customer Contacts": "Mr. Mario Martinez, Owner/Managing Member"
  },
  {
    "name": "Lone Star Roofing & General Contractors",
    "rating": "BBB Rating: A",
    "location": "4849 Greenville Ave Ste 144, Dallas, TX 75206-4130",
    "phone": "(972) 469-1102",
    "link": "https://www.bbb.org/us/tx/dallas/profile/roofing-contractors/lone-star-roofing-general-contractors-0875-91336148/addressId/182505",
    "street": "4849 Greenville Ave Ste 144",
    "city": "Dallas",
    "state": "TX",
    "zip": "75206-4130",
    "fullAddress": "4849 Greenville Ave Ste 144Dallas, TX 75206-4130",
    "email": "",
    "website": "https://www.lonestarroofinggc.com/",
    "websiteEmail": "",
    "phone1": "(972) 469-1102",
    "Business Management:": "Mr. Mario Martinez, Owner/Managing Member",
    "Principal Contacts": "Mr. Mario Martinez, Owner/Managing Member",
    "Customer Contacts": "Mr. Mario Martinez, Owner/Managing Member"
  },
  {
    "name": "Contractors Plus Roofing & Construction, LLC",
    "rating": "BBB Rating: A+",
    "location": "10935 Estate Ln STE 400, Dallas, TX 75238-5110",
    "phone": "(469) 809-8499",
    "link": "https://www.bbb.org/us/tx/dallas/profile/roofing-contractors/contractors-plus-roofing-construction-llc-0875-91142415",
    "street": "10935 Estate Ln STE 400",
    "city": "Dallas",
    "state": "TX",
    "zip": "75238-5110",
    "fullAddress": "10935 Estate Ln STE 400Dallas, TX 75238-5110",
    "email": "",
    "website": "https://www.contractorsplustx.com/",
    "websiteEmail": "",
    "phone1": "(469) 809-8499",
    "Business Management:": "Mrs. Tiffany Simmons, Owner/Manager",
    "Principal Contacts": "Mrs. Tiffany Simmons, Owner/Manager",
    "Customer Contacts": "Mrs. Tiffany Simmons, Owner/Manager"
  },
  {
    "name": "Sutter Creek Roof Contractors",
    "rating": "",
    "location": "PO Box 831, Jackson, CA 95642",
    "phone": "(209) 296-5888",
    "link": "https://www.bbb.org/us/ca/jackson/profile/roofing-contractors/sutter-creek-roof-contractors-1156-30000734",
    "street": "PO Box 831",
    "city": "Jackson",
    "state": "CA",
    "zip": "95642",
    "fullAddress": "PO Box 831Jackson, CA 95642",
    "email": "",
    "website": "",
    "websiteEmail": "",
    "phone1": "(209) 296-5888",
    "Business Management:": "Mr. Robert T. Thornhill, President/CEO",
    "Principal Contacts": "Mr. Robert T. Thornhill, President/CEO",
    "Customer Contacts": "Mr. Robert T. Thornhill, President/CEO"
  },
  {
    "name": "BluSky Restoration Contractors LLC",
    "rating": "BBB Rating: A+",
    "location": "105 N Gold Dr Unit B, Robbinsville, NJ 08691",
    "phone": "(303) 789-4258",
    "link": "https://www.bbb.org/us/nj/robbinsville/profile/fire-water-damage-restoration/blusky-restoration-contractors-llc-0221-90236489/addressId/203276",
    "street": "105 N Gold Dr Unit B",
    "city": "Robbinsville",
    "state": "NJ",
    "zip": "08691",
    "fullAddress": "105 N Gold Dr Unit BRobbinsville, NJ 08691-1603",
    "email": "",
    "website": "https://www.goblusky.com/",
    "websiteEmail": "",
    "Business Management:": "Drew Bisping, Owner",
    "Principal Contacts": "Drew Bisping, Owner",
    "Customer Contacts": "Drew Bisping, Owner"
  },
  {
    "name": "BluSky Restoration Contractors LLC",
    "rating": "BBB Rating: A+",
    "location": "1250 Imeson Park Blvd Ste 401, Jacksonville, FL 32218",
    "phone": "(904) 470-6590",
    "link": "https://www.bbb.org/us/fl/jacksonville/profile/fire-water-damage-restoration/blusky-restoration-contractors-llc-0403-236027362/addressId/140964",
    "street": "1250 Imeson Park Blvd Ste 401",
    "city": "Jacksonville",
    "state": "FL",
    "zip": "32218",
    "fullAddress": "1250 Imeson Park Blvd Ste 401Jacksonville, FL 32218",
    "email": "",
    "website": "https://www.goblusky.com/",
    "websiteEmail": "",
    "phone1": "(904) 470-6590",
    "Business Management:": "Mr. Curtis Gaskalla, Vice President Jacksonville",
    "Principal Contacts": "Mr. Curtis Gaskalla, Vice President Jacksonville",
    "Customer Contacts": "Mr. Curtis Gaskalla, Vice President Jacksonville"
  },
  {
    "name": "BluSky Restoration Contractors LLC",
    "rating": "BBB Rating: A+",
    "location": "1183 Warner Ave, Tustin, CA 92780",
    "phone": "(800) 266-5677",
    "link": "https://www.bbb.org/us/ca/tustin/profile/fire-water-damage-restoration/blusky-restoration-contractors-llc-1126-1000088280/addressId/430132",
    "street": "1183 Warner Ave",
    "city": "Tustin",
    "state": "CA",
    "zip": "92780",
    "fullAddress": "1183 Warner AveTustin, CA 92780-6458",
    "email": "",
    "website": "https://www.goblusky.com/",
    "websiteEmail": "",
    "phone1": "(657) 722-1200",
    "phone2": "(800) 266-5677",
    "Business Management:": "Ms. Sarah Myers, Digital Marketing Specialist; Mr. Drew Bisping, CEO",
    "Customer Contacts": "Ms. Sarah Myers, Digital Marketing Specialist"
  },
  {
    "name": "BluSky Restoration Contractors LLC",
    "rating": "BBB Rating: A+",
    "location": "608 Trestle Pt, Sanford, FL 32771",
    "phone": "(407) 295-5440",
    "link": "https://www.bbb.org/us/fl/sanford/profile/fire-water-damage-restoration/blusky-restoration-contractors-llc-0733-4000427/addressId/185883",
    "street": "608 Trestle Pt",
    "city": "Sanford",
    "state": "FL",
    "zip": "32771",
    "fullAddress": "608 Trestle PtSanford, FL 32771-8200",
    "email": "",
    "website": "https://www.goblusky.com/",
    "websiteEmail": "",
    "phone1": "(407) 295-5440",
    "Date of New Ownership:": "5/3/2022",
    "Customer Contacts": "Kevin Hamilton, Estimator and Mitigation Manager; Drew Bisping, Manager; Michael Erekson, Manager"
  },
  {
    "name": "C B W Contractors",
    "rating": "",
    "location": "44122 Kendyl, Sterling Hts, MI 48314-1986",
    "phone": "(800) 677-6356",
    "link": "https://www.bbb.org/us/mi/sterling-hts/profile/roofing-contractors/c-b-w-contractors-0372-1108",
    "street": "44122 Kendyl",
    "city": "Sterling Hts",
    "state": "MI",
    "zip": "48314-1986",
    "fullAddress": "44122 KendylSterling Hts, MI 48314-1986",
    "email": "",
    "website": "",
    "websiteEmail": "",
    "phone1": "(800) 677-6356"
  },
  {
    "name": "Hayden Brothers General Contractors",
    "rating": "BBB Rating: A+",
    "location": "2822 Campbell Ave, Schenectady, NY 12306-2406",
    "phone": "(518) 346-9264",
    "link": "https://www.bbb.org/us/ny/schenectady/profile/roofing-contractors/hayden-brothers-general-contractors-0041-77000664",
    "street": "2822 Campbell Ave",
    "city": "Schenectady",
    "state": "NY",
    "zip": "12306-2406",
    "fullAddress": "2822 Campbell AveSchenectady, NY 12306-2406",
    "email": "",
    "website": "",
    "websiteEmail": "",
    "phone1": "(518) 346-9264"
  },
  {
    "name": "Sutter Creek Roof Contractors",
    "rating": "",
    "location": "PO Box 831, Jackson, CA 95642",
    "phone": "(209) 296-5888",
    "link": "https://www.bbb.org/us/ca/jackson/profile/roofing-contractors/sutter-creek-roof-contractors-1156-30000734",
    "street": "PO Box 831",
    "city": "Jackson",
    "state": "CA",
    "zip": "95642",
    "fullAddress": "PO Box 831Jackson, CA 95642",
    "email": "",
    "website": "",
    "websiteEmail": "",
    "phone1": "(209) 296-5888",
    "Business Management:": "Mr. Robert T. Thornhill, President/CEO",
    "Principal Contacts": "Mr. Robert T. Thornhill, President/CEO",
    "Customer Contacts": "Mr. Robert T. Thornhill, President/CEO"
  },
  {
    "name": "BluSky Restoration Contractors LLC",
    "rating": "BBB Rating: A+",
    "location": "105 N Gold Dr Unit B, Robbinsville, NJ 08691",
    "phone": "(303) 789-4258",
    "link": "https://www.bbb.org/us/nj/robbinsville/profile/fire-water-damage-restoration/blusky-restoration-contractors-llc-0221-90236489/addressId/203276",
    "street": "105 N Gold Dr Unit B",
    "city": "Robbinsville",
    "state": "NJ",
    "zip": "08691",
    "fullAddress": "105 N Gold Dr Unit BRobbinsville, NJ 08691-1603",
    "email": "",
    "website": "https://www.goblusky.com/",
    "websiteEmail": "",
    "Business Management:": "Drew Bisping, Owner",
    "Principal Contacts": "Drew Bisping, Owner",
    "Customer Contacts": "Drew Bisping, Owner"
  },
  {
    "name": "BluSky Restoration Contractors LLC",
    "rating": "BBB Rating: A+",
    "location": "1250 Imeson Park Blvd Ste 401, Jacksonville, FL 32218",
    "phone": "(904) 470-6590",
    "link": "https://www.bbb.org/us/fl/jacksonville/profile/fire-water-damage-restoration/blusky-restoration-contractors-llc-0403-236027362/addressId/140964",
    "street": "1250 Imeson Park Blvd Ste 401",
    "city": "Jacksonville",
    "state": "FL",
    "zip": "32218",
    "fullAddress": "1250 Imeson Park Blvd Ste 401Jacksonville, FL 32218",
    "email": "",
    "website": "https://www.goblusky.com/",
    "websiteEmail": "",
    "phone1": "(904) 470-6590",
    "Business Management:": "Mr. Curtis Gaskalla, Vice President Jacksonville",
    "Principal Contacts": "Mr. Curtis Gaskalla, Vice President Jacksonville",
    "Customer Contacts": "Mr. Curtis Gaskalla, Vice President Jacksonville"
  },
  {
    "name": "BluSky Restoration Contractors LLC",
    "rating": "BBB Rating: A+",
    "location": "1183 Warner Ave, Tustin, CA 92780",
    "phone": "(800) 266-5677",
    "link": "https://www.bbb.org/us/ca/tustin/profile/fire-water-damage-restoration/blusky-restoration-contractors-llc-1126-1000088280/addressId/430132",
    "street": "1183 Warner Ave",
    "city": "Tustin",
    "state": "CA",
    "zip": "92780",
    "fullAddress": "1183 Warner AveTustin, CA 92780-6458",
    "email": "",
    "website": "https://www.goblusky.com/",
    "websiteEmail": "",
    "phone1": "(657) 722-1200",
    "phone2": "(800) 266-5677",
    "Business Management:": "Ms. Sarah Myers, Digital Marketing Specialist; Mr. Drew Bisping, CEO",
    "Customer Contacts": "Ms. Sarah Myers, Digital Marketing Specialist"
  },
  {
    "name": "BluSky Restoration Contractors LLC",
    "rating": "BBB Rating: A+",
    "location": "455 54th St # S-101, San Diego, CA 92114",
    "phone": "(800) 266-5677",
    "link": "https://www.bbb.org/us/ca/san-diego/profile/fire-water-damage-restoration/blusky-restoration-contractors-llc-1126-1000088281/addressId/430131",
    "street": "455 54th St # S-101",
    "city": "San Diego",
    "state": "CA",
    "zip": "92114",
    "fullAddress": "455 54th St # S-101San Diego, CA 92114-2220",
    "email": "",
    "website": "https://www.goblusky.com/",
    "websiteEmail": "",
    "phone1": "(619) 398-0200",
    "phone2": "(800) 266-5677",
    "Business Management:": "Ms. Sarah Myers, Digital Marketing Specialist; Mr. Drew Bisping, CEO",
    "Customer Contacts": "Ms. Sarah Myers, Digital Marketing Specialist"
  },
  {
    "name": "JB Miller Contractors LLC",
    "rating": "BBB Rating: A+",
    "location": "917 E Lincoln Ave, Myerstown, PA 17067-2252",
    "phone": "(717) 644-5566",
    "link": "https://www.bbb.org/us/pa/myerstown/profile/roofing-contractors/jb-miller-contractors-llc-0241-236001205",
    "street": "917 E Lincoln Ave",
    "city": "Myerstown",
    "state": "PA",
    "zip": "17067-2252",
    "fullAddress": "917 E Lincoln AveMyerstown, PA 17067-2252",
    "email": "",
    "website": "https://jbmillercontractors.com/",
    "websiteEmail": "",
    "phone1": "(717) 644-5566",
    "phone2": "(800) 441-2555",
    "Business Management:": "Mr. Jared Miller, Owner",
    "Principal Contacts": "Mr. Jared Miller, Owner",
    "Customer Contacts": "Mr. Jared Miller, Owner"
  },
  {
    "name": "C Three Contractors LLC",
    "rating": "BBB Rating: A+",
    "location": "Saint Louis, MO 63125-5122",
    "phone": "(314) 445-8270",
    "link": "https://www.bbb.org/us/mo/saint-louis/profile/roofing-contractors/c-three-contractors-llc-0734-1000048019",
    "street": "",
    "city": "Saint Louis",
    "state": "MO",
    "zip": "63125-5122",
    "fullAddress": "Saint Louis, MO 63125-5122",
    "email": "",
    "website": "https://www.c3contractors.com/",
    "websiteEmail": "",
    "phone1": "(314) 828-8449",
    "phone2": "(314) 445-8270",
    "Business Management:": "Amy Yan, Owner",
    "Principal Contacts": "Amy Yan, Owner",
    "Customer Contacts": "Amy Yan, Owner"
  },
  {
    "name": "Roofing Contractors of West Monroe LLC",
    "rating": "BBB Rating: A+",
    "location": "P. O. Box 1997, West Monroe, LA 71294",
    "phone": "(318) 322-9985",
    "link": "https://www.bbb.org/us/la/west-monroe/profile/roofing-contractors/roofing-contractors-of-west-monroe-llc-1015-202026429",
    "street": "P. O. Box 1997",
    "city": "West Monroe",
    "state": "LA",
    "zip": "71294",
    "fullAddress": "P. O. Box 1997West Monroe, LA 71294",
    "email": "",
    "website": "",
    "websiteEmail": "",
    "phone1": "(318) 322-9985",
    "Principal Contacts": "Mr. Joseph L Crawford",
    "Customer Contacts": "Mr. Joseph L Crawford; Mr. Joseph L. Crawford"
  },
  {
    "name": "Blue Angel Roofing And General Contractors",
    "rating": "BBB Rating: A+",
    "location": "450 Century Pkwy STE 250, Allen, TX 75013-8136",
    "phone": "(214) 385-9262",
    "link": "https://www.bbb.org/us/tx/allen/profile/roofing-contractors/blue-angel-roofing-and-general-contractors-0875-91302723",
    "street": "450 Century Pkwy STE 250",
    "city": "Allen",
    "state": "TX",
    "zip": "75013-8136",
    "fullAddress": "450 Century Pkwy STE 250Allen, TX 75013-8136",
    "email": "",
    "website": "https://blueangelroofinggc.com/",
    "websiteEmail": "",
    "phone1": "(214) 385-9262",
    "Business Management:": "Mr. Philip Gano, Owner/Manager",
    "Principal Contacts": "Mr. Philip Gano, Owner/Manager",
    "Customer Contacts": "Mr. Philip Gano, Owner/Manager"
  },
  {
    "name": "Sun West Contractors Inc",
    "rating": "",
    "location": "12945 Montana Ave, El Paso, TX 79936",
    "phone": "(915) 857-7787",
    "link": "https://www.bbb.org/us/tx/el-paso/profile/roofing-contractors/sun-west-contractors-inc-0895-87050001",
    "street": "12945 Montana Ave",
    "city": "El Paso",
    "state": "TX",
    "zip": "79936",
    "fullAddress": "12945 Montana AveEl Paso, TX 79936",
    "email": "",
    "website": "",
    "websiteEmail": "",
    "phone1": "(915) 857-7787",
    "Business Management:": "Tobi Jo Varnell, Owner; Paul E Varnell; Jose Benavidez, Owner; Norma Benavidez",
    "Principal Contacts": "Jose Benavidez, Owner",
    "Customer Contacts": "Norma Benavidez"
  },
  {
    "name": "E & K Contractors",
    "rating": "BBB Rating: A+",
    "location": "209 Ginny Ln, Griffin, GA 30223-6029",
    "phone": "(404) 267-3647",
    "link": "https://www.bbb.org/us/ga/griffin/profile/home-improvement/e-k-contractors-0443-27238764",
    "street": "209 Ginny Ln",
    "city": "Griffin",
    "state": "GA",
    "zip": "30223-6029",
    "fullAddress": "209 Ginny LnGriffin, GA 30223-6029",
    "email": "",
    "website": "https://www.eandkrestore.com/",
    "websiteEmail": "",
    "phone1": "(404) 267-3647",
    "Business Management:": "Mr. James Ellis, Owner",
    "Principal Contacts": "Mr. James Ellis, Owner",
    "Customer Contacts": "Mr. James Ellis, Owner"
  },
  {
    "name": "K R B Contractors",
    "rating": "",
    "location": "1608 Crestleigh Ct, Finksburg, MD 21048-1934",
    "phone": "(410) 977-4950",
    "link": "https://www.bbb.org/us/md/finksburg/profile/roofing-contractors/k-r-b-contractors-0011-16000062",
    "street": "1608 Crestleigh Ct",
    "city": "Finksburg",
    "state": "MD",
    "zip": "21048-1934",
    "fullAddress": "1608 Cresslee CtFinksburg, MD 21048",
    "email": "",
    "website": "",
    "websiteEmail": "",
    "phone1": "(410) 977-4950",
    "phone2": "(410) 876-9692",
    "Principal Contacts": "Mr. Robert Willis Blouse, Owner",
    "Customer Contacts": "Mr. Robert Willis Blouse, Owner; Mr. Robert Blouse"
  },
  {
    "name": "E & K Contractors",
    "rating": "BBB Rating: A+",
    "location": "209 Ginny Ln, Griffin, GA 30223-6029",
    "phone": "(404) 267-3647",
    "link": "https://www.bbb.org/us/ga/griffin/profile/home-improvement/e-k-contractors-0443-27238764",
    "street": "209 Ginny Ln",
    "city": "Griffin",
    "state": "GA",
    "zip": "30223-6029",
    "fullAddress": "209 Ginny LnGriffin, GA 30223-6029",
    "email": "",
    "website": "https://www.eandkrestore.com/",
    "websiteEmail": "",
    "phone1": "(404) 267-3647",
    "Business Management:": "Mr. James Ellis, Owner",
    "Principal Contacts": "Mr. James Ellis, Owner",
    "Customer Contacts": "Mr. James Ellis, Owner"
  },
  {
    "name": "Roofing & Reconstruction Contractors of America LLC",
    "rating": "BBB Rating: C+",
    "location": "1951 J and C Blvd, Naples, FL 34109-6211",
    "phone": "(239) 449-6301",
    "link": "https://www.bbb.org/us/fl/naples/profile/roofing-contractors/roofing-reconstruction-contractors-of-america-llc-0653-90325088",
    "street": "1951 J and C Blvd",
    "city": "Naples",
    "state": "FL",
    "zip": "34109-6211",
    "fullAddress": "1951 J and C BlvdNaples, FL 34109-6211",
    "email": "",
    "website": "https://rrcausa.com/",
    "websiteEmail": "",
    "phone1": "(239) 449-6301",
    "phone2": "(877) 240-7722",
    "phone3": "(239) 307-1677",
    "phone4": "(850) 487-1395",
    "phone5": "(239) 252-2400",
    "phone6": "(239) 533-8895",
    "Business Management:": "Mr. Donald Haight, Managing Member; George Haight, CEO",
    "Principal Contacts": "Mr. Donald Haight, Managing Member",
    "Customer Contacts": "Mr. Donald Haight, Managing Member; Mr. Dustin Herrin, General Manager; Ms. Shira Chiesa, Director of Customer Care"
  },
  {
    "name": "Roofing & Reconstruction Contractors of America LLC",
    "rating": "BBB Rating: C+",
    "location": "9387 Seminole Blvd, Seminole, FL 33772",
    "phone": "(239) 449-6301",
    "link": "https://www.bbb.org/us/fl/seminole/profile/roofing-contractors/roofing-reconstruction-contractors-of-america-llc-0653-90325088/addressId/321102",
    "street": "9387 Seminole Blvd",
    "city": "Seminole",
    "state": "FL",
    "zip": "33772",
    "fullAddress": "9387 Seminole BlvdSeminole, FL 33772",
    "email": "",
    "website": "https://rrcausa.com/",
    "websiteEmail": "",
    "phone1": "(239) 449-6301",
    "phone2": "(877) 240-7722",
    "phone3": "(239) 307-1677",
    "phone4": "(850) 487-1395",
    "phone5": "(239) 252-2400",
    "phone6": "(239) 533-8895",
    "Business Management:": "Mr. Donald Haight, Managing Member; George Haight, CEO",
    "Principal Contacts": "Mr. Donald Haight, Managing Member",
    "Customer Contacts": "Mr. Donald Haight, Managing Member; Mr. Dustin Herrin, General Manager; Ms. Shira Chiesa, Director of Customer Care"
  },
  {
    "name": "Little Wing General Contractors",
    "rating": "BBB Rating: A+",
    "location": "227 N Loop 1604 E Ste 150, San Antonio, TX 78232",
    "phone": "(303) 888-4884",
    "link": "https://www.bbb.org/us/tx/san-antonio/profile/roofing-contractors/little-wing-general-contractors-0825-1000114244?addressId=189987",
    "street": "227 N Loop 1604 E Ste 150",
    "city": "San Antonio",
    "state": "TX",
    "zip": "78232",
    "fullAddress": "227 N Loop 1604 E Ste 150San Antonio, TX 78232-1450",
    "email": "",
    "website": "https://littlewingroofing.com/",
    "websiteEmail": "",
    "phone1": "(210) 264-1878",
    "Business Management:": "Mr. Rupert Lona, President; Mr. Damon Lona, GM",
    "Principal Contacts": "Mr. Rupert Lona, President",
    "Customer Contacts": "Mr. Rupert Lona, President"
  },
  {
    "name": "AAA 5 Star Contractors",
    "rating": "BBB Rating: A+",
    "location": "301 Thornhill Cemetery Rd, Troy, MO 63379",
    "phone": "(314) 602-4947",
    "link": "https://www.bbb.org/us/mo/troy/profile/construction-services/aaa-5-star-contractors-0734-310613850",
    "street": "301 Thornhill Cemetery Rd",
    "city": "Troy",
    "state": "MO",
    "zip": "63379",
    "fullAddress": "301 Thornhill Cemetery RdTroy, MO 63379",
    "email": "",
    "website": "https://www.facebook.com/aaa5starcontractor",
    "websiteEmail": "",
    "phone1": "(314) 602-4947",
    "phone2": "(314) 265-7712",
    "Business Management:": "Mr. Nathan C Storz, Owner",
    "Principal Contacts": "Mr. Nathan C Storz, Owner",
    "Customer Contacts": "Mr. Nathan C Storz, Owner"
  },
  {
    "name": "Tri-State General Contractors",
    "rating": "",
    "location": "701 28th St, Columbus, GA 31904-8704",
    "phone": "",
    "link": "https://www.bbb.org/us/ga/columbus/profile/general-contractor/tri-state-general-contractors-0743-9100258",
    "street": "701 28th St",
    "city": "Columbus",
    "state": "GA",
    "zip": "31904-8704",
    "fullAddress": "701 28th StColumbus, GA 31904-8704",
    "email": "",
    "website": "",
    "websiteEmail": "",
    "Principal Contacts": "Mr. Sean Taylor, Owner",
    "Customer Contacts": "Mr. Sean Taylor, Owner"
  },
  {
    "name": "Texas Edge Roofing and General Contractors",
    "rating": "BBB Rating: A",
    "location": "5015 Addison Cir PMB 1015, Addison, TX 75001-3308",
    "phone": "(800) 502-7663",
    "link": "https://www.bbb.org/us/tx/addison/profile/roofing-contractors/texas-edge-roofing-and-general-contractors-0875-91340457",
    "street": "5015 Addison Cir PMB 1015",
    "city": "Addison",
    "state": "TX",
    "zip": "75001-3308",
    "fullAddress": "5015 Addison Cir PMB 1015Addison, TX 75001-3308",
    "email": "",
    "website": "https://texasedgeroofing.com/",
    "websiteEmail": "",
    "phone1": "(800) 502-7663",
    "Business Management:": "Mr. Bradley Deron Barree, Managing Member",
    "Principal Contacts": "Mr. Bradley Deron Barree, Managing Member",
    "Customer Contacts": "Mr. Bradley Deron Barree, Managing Member"
  },
  {
    "name": "Carter Contractors Unlimited, LLC",
    "rating": "BBB Rating: A+",
    "location": "Pickerington, OH 43147-9099",
    "phone": "(614) 338-9965",
    "link": "https://www.bbb.org/us/oh/pickerington/profile/construction-services/carter-contractors-unlimited-llc-0302-70083731",
    "street": "",
    "city": "Pickerington",
    "state": "OH",
    "zip": "43147-9099",
    "fullAddress": "Pickerington, OH 43147-9099",
    "email": "",
    "website": "https://www.cartercontractorsunlimited.com/",
    "websiteEmail": "",
    "phone1": "(614) 338-9965",
    "Business Management:": "Ms. Beverly A Carter, Co-Owner; Mr. Gregory Carter, Co-Owner",
    "Principal Contacts": "Ms. Beverly A Carter, Co-Owner; Mr. Gregory Carter, Co-Owner",
    "Customer Contacts": "Ms. Beverly A Carter, Co-Owner; Mr. Gregory Carter, Co-Owner"
  },
  {
    "name": "G H Clark Contractors",
    "rating": "BBB Rating: A+",
    "location": "PO Box 1785, Prince Frederick, MD 20678-1785",
    "phone": "(410) 414-7060",
    "link": "https://www.bbb.org/us/md/prince-frederick/profile/roofing-contractors/g-h-clark-contractors-0241-8680/addressId/197971",
    "street": "PO Box 1785",
    "city": "Prince Frederick",
    "state": "MD",
    "zip": "20678-1785",
    "fullAddress": "PO Box 1785Prince Frederick, MD 20678-1785",
    "email": "",
    "website": "https://www.ghclark.com/",
    "websiteEmail": "",
    "phone1": "(410) 414-7060",
    "phone2": "(301) 373-2226",
    "Business Management:": "Mr. Gil Clark, President/Owner",
    "Principal Contacts": "Mr. Gil Clark, President/Owner",
    "Customer Contacts": "Mr. Gil Clark, President/Owner"
  },
  {
    "name": "G & D Contractors LLC",
    "rating": "BBB Rating: A+",
    "location": "837 Summerview Dr, Saint Charles, MO 63304-2654",
    "phone": "(636) 755-0734",
    "link": "https://www.bbb.org/us/mo/saint-charles/profile/roofing-contractors/g-d-contractors-llc-0734-1000044934",
    "street": "837 Summerview Dr",
    "city": "Saint Charles",
    "state": "MO",
    "zip": "63304-2654",
    "fullAddress": "837 Summerview DrSaint Charles, MO 63304-2654",
    "email": "",
    "website": "https://www.facebook.com/people/GD-Contractors-LLC/61558299031793/",
    "websiteEmail": "",
    "phone1": "(636) 755-0734",
    "Business Management:": "Mr. Mejia Gabarrete, Owner",
    "Principal Contacts": "Mr. Mejia Gabarrete, Owner",
    "Customer Contacts": "Mr. Mejia Gabarrete, Owner"
  },
  {
    "name": "North Arrow General Contractors",
    "rating": "",
    "location": "5830 Granite Pkwy STE 100 PMB 200, Plano, TX 75024-6794",
    "phone": "(214) 537-6585",
    "link": "https://www.bbb.org/us/tx/plano/profile/general-contractor/north-arrow-general-contractors-0875-91024688",
    "street": "5830 Granite Pkwy STE 100 PMB 200",
    "city": "Plano",
    "state": "TX",
    "zip": "75024-6794",
    "fullAddress": "5830 Granite Pkwy STE 100 PMB 200Plano, TX 75024-6794",
    "email": "",
    "website": "https://northarrowgc.com/",
    "websiteEmail": "",
    "phone1": "(214) 537-6585",
    "Business Management:": "Mr. Logan Nunez, President",
    "Principal Contacts": "Mr. Logan Nunez, President",
    "Customer Contacts": "Mr. Logan Nunez, President"
  },
  {
    "name": "J S W Roofing & Siding Contractors",
    "rating": "",
    "location": "26 Hale Ave, Hooksett, NH 03106-1144",
    "phone": "(603) 497-2257",
    "link": "https://www.bbb.org/us/nh/hooksett/profile/roofing-contractors/j-s-w-roofing-siding-contractors-0051-6000127",
    "street": "26 Hale Ave",
    "city": "Hooksett",
    "state": "NH",
    "zip": "03106-1144",
    "fullAddress": "26 Hale AveHooksett, NH 03106-1144",
    "email": "",
    "website": "",
    "websiteEmail": "",
    "phone1": "(603) 497-2257",
    "Business Management:": "Jack C. Gagne, Owner",
    "Principal Contacts": "Jack C. Gagne, Owner",
    "Customer Contacts": "Jack C. Gagne, Owner"
  },
  {
    "name": "K R B Contractors",
    "rating": "",
    "location": "1608 Cresslee Ct, Finksburg, MD 21048",
    "phone": "(410) 977-4950",
    "link": "https://www.bbb.org/us/md/finksburg/profile/roofing-contractors/k-r-b-contractors-0011-16000062",
    "street": "1608 Cresslee Ct",
    "city": "Finksburg",
    "state": "MD",
    "zip": "21048",
    "fullAddress": "1608 Cresslee CtFinksburg, MD 21048",
    "email": "",
    "website": "",
    "websiteEmail": "",
    "phone1": "(410) 977-4950",
    "phone2": "(410) 876-9692",
    "Principal Contacts": "Mr. Robert Willis Blouse, Owner",
    "Customer Contacts": "Mr. Robert Willis Blouse, Owner; Mr. Robert Blouse"
  },
  {
    "name": "North Texas Contractors Group",
    "rating": "BBB Rating: A+",
    "location": "12650 N Beach St Ste 114-55, Fort Worth, TX 76244-4243",
    "phone": "(469) 767-4846",
    "link": "https://www.bbb.org/us/tx/fort-worth/profile/roofing-contractors/north-texas-contractors-group-0825-1000142534",
    "street": "12650 N Beach St Ste 114-55",
    "city": "Fort Worth",
    "state": "TX",
    "zip": "76244-4243",
    "fullAddress": "12650 N Beach St Ste 114-55Fort Worth, TX 76244-4243",
    "email": "",
    "website": "https://www.ntxcg.com/",
    "websiteEmail": "",
    "phone1": "(469) 767-4846",
    "Business Management:": "Mr. Will Dee Holman, Managing Member; Mr. Joseph Robert Chacon, Managing Member",
    "Principal Contacts": "Mr. Will Dee Holman, Managing Member",
    "Customer Contacts": "Mr. Will Dee Holman, Managing Member"
  },
  {
    "name": "H&M General Contractors",
    "rating": "BBB Rating: A+",
    "location": "2130 Waters Ferry Dr, Lawrenceville, GA 30043-3173",
    "phone": "(770) 870-0756",
    "link": "https://www.bbb.org/us/ga/lawrenceville/profile/roofing-contractors/hm-general-contractors-0443-28137577",
    "street": "2130 Waters Ferry Dr",
    "city": "Lawrenceville",
    "state": "GA",
    "zip": "30043-3173",
    "fullAddress": "2130 Waters Ferry DrLawrenceville, GA 30043-3173",
    "email": "",
    "website": "https://elektrorenovations.com/",
    "websiteEmail": "",
    "phone1": "(770) 870-0756",
    "Business Management:": "Mr. Denier Hernandez, Owner; Mrs. Mayra Hernandez, Co-Owner",
    "Principal Contacts": "Mr. Denier Hernandez, Owner",
    "Customer Contacts": "Mr. Denier Hernandez, Owner"
  },
  {
    "name": "Contractors, Inc.",
    "rating": "BBB Rating: A+",
    "location": "6707 Fletcher Creek Cv, Memphis, TN 38133",
    "phone": "(901) 654-5620",
    "link": "https://www.bbb.org/us/tn/memphis/profile/roofing-contractors/contractors-inc-0543-44007677/addressId/13307",
    "street": "6707 Fletcher Creek Cv",
    "city": "Memphis",
    "state": "TN",
    "zip": "38133",
    "fullAddress": "6707 Fletcher Creek CvMemphis, TN 38133-7055",
    "email": "",
    "website": "https://www.cranerenovationgroup.com/",
    "websiteEmail": "",
    "phone1": "(800) 467-7663",
    "phone2": "(901) 654-5620",
    "phone3": "(731) 513-0090",
    "phone4": "(901) 377-6055",
    "Principal Contacts": "Mr. Jim Ziminski, President",
    "Customer Contacts": "Mr. Chris McIntyre, Director of Finance; Mr. Dan Moore, VP Production; Mr. Steve Weyl, Founder; Mr. Jim Ziminski, President"
  },
  {
    "name": "1st Source Contractors Inc",
    "rating": "BBB Rating: A+",
    "location": "1560 Frontage Rd, O Fallon, IL 62269-1843",
    "phone": "(618) 628-3275",
    "link": "https://www.bbb.org/us/il/o-fallon/profile/roofing-contractors/1st-source-contractors-inc-0734-310485571",
    "street": "1560 Frontage Rd",
    "city": "O Fallon",
    "state": "IL",
    "zip": "62269-1843",
    "fullAddress": "1560 Frontage RdO Fallon, IL 62269-1843",
    "email": "",
    "website": "https://www.1stsourcecontractors.com/",
    "websiteEmail": "",
    "phone1": "(618) 628-3275",
    "Business Management:": "Mrs. Kelly A Miller, Co-Owner; Mr. Brad A Miller, Co-Owner",
    "Principal Contacts": "Mrs. Kelly A Miller, Co-Owner; Mr. Brad A Miller, Co-Owner",
    "Customer Contacts": "Mrs. Kelly A Miller, Co-Owner; Mr. Brad A Miller, Co-Owner"
  },
  {
    "name": "Integrity Roofing Contractors",
    "rating": "",
    "location": "1016 Concan Dr, Forney, TX 75126-5082",
    "phone": "(214) 283-2020",
    "link": "https://www.bbb.org/us/tx/forney/profile/roofing-contractors/integrity-roofing-contractors-0875-90900453",
    "street": "1016 Concan Dr",
    "city": "Forney",
    "state": "TX",
    "zip": "75126-5082",
    "fullAddress": "1016 Concan DrForney, TX 75126-5082",
    "email": "",
    "website": "https://www.facebook.com/IntegrityRoofingDFW",
    "websiteEmail": "",
    "phone1": "(214) 283-2020",
    "Business Management:": "Mr. Everardo Escareno Nuez, Owner",
    "Principal Contacts": "Mr. Everardo Escareno Nuez, Owner",
    "Customer Contacts": "Mr. Everardo Escareno Nuez, Owner"
  },
  {
    "name": "H&M General Contractors",
    "rating": "BBB Rating: A+",
    "location": "2130 Waters Ferry Dr, Lawrenceville, GA 30043-3173",
    "phone": "(770) 870-0756",
    "link": "https://www.bbb.org/us/ga/lawrenceville/profile/roofing-contractors/hm-general-contractors-0443-28137577",
    "street": "2130 Waters Ferry Dr",
    "city": "Lawrenceville",
    "state": "GA",
    "zip": "30043-3173",
    "fullAddress": "2130 Waters Ferry DrLawrenceville, GA 30043-3173",
    "email": "",
    "website": "https://elektrorenovations.com/",
    "websiteEmail": "",
    "phone1": "(770) 870-0756",
    "Business Management:": "Mr. Denier Hernandez, Owner; Mrs. Mayra Hernandez, Co-Owner",
    "Principal Contacts": "Mr. Denier Hernandez, Owner",
    "Customer Contacts": "Mr. Denier Hernandez, Owner"
  },
  {
    "name": "Diversified of El Paso Contractors",
    "rating": "",
    "location": "11641 Casa View Dr, El Paso, TX 79936-6510",
    "phone": "(915) 252-1315",
    "link": "https://www.bbb.org/us/tx/el-paso/profile/roofing-contractors/diversified-of-el-paso-contractors-0895-95020131",
    "street": "11641 Casa View Dr",
    "city": "El Paso",
    "state": "TX",
    "zip": "79936-6510",
    "fullAddress": "11641 Casa View DrEl Paso, TX 79936-6510",
    "email": "",
    "website": "",
    "websiteEmail": "",
    "phone1": "(915) 252-1315",
    "phone2": "(915) 598-8089",
    "Business Management:": "Mr. Rice; Thomas Gonzalez, Owner",
    "Principal Contacts": "Thomas Gonzalez, Owner",
    "Customer Contacts": "Thomas Gonzalez, Owner"
  },
  {
    "name": "American Storm Contractors Inc",
    "rating": "BBB Rating: A+",
    "location": "7630 Beloit Ave, Bridgeview, IL 60455-1302",
    "phone": "(708) 218-0282",
    "link": "https://www.bbb.org/us/il/bridgeview/profile/roofing-contractors/american-storm-contractors-inc-0654-90026833",
    "street": "7630 Beloit Ave",
    "city": "Bridgeview",
    "state": "IL",
    "zip": "60455-1302",
    "fullAddress": "7630 Beloit AveBridgeview, IL 60455-1302",
    "email": "",
    "website": "https://www.americanstormcontractors.com/",
    "websiteEmail": "",
    "phone1": "(708) 218-0282",
    "Business Management:": "Mrs. Khitam Nassar, President",
    "Principal Contacts": "Mrs. Khitam Nassar, President",
    "Customer Contacts": "Mrs. Khitam Nassar, President"
  },
  {
    "name": "Diversified of El Paso Contractors",
    "rating": "",
    "location": "4495 Titanic Ave, El Paso, TX 79904-3330",
    "phone": "(915) 252-1315",
    "link": "https://www.bbb.org/us/tx/el-paso/profile/roofing-contractors/diversified-of-el-paso-contractors-0895-95020131/addressId/5431",
    "street": "4495 Titanic Ave",
    "city": "El Paso",
    "state": "TX",
    "zip": "79904-3330",
    "fullAddress": "4495 Titanic AveEl Paso, TX 79904-3330",
    "email": "",
    "website": "",
    "websiteEmail": "",
    "phone1": "(915) 252-1315",
    "phone2": "(915) 598-8089",
    "Business Management:": "Mr. Rice; Thomas Gonzalez, Owner",
    "Principal Contacts": "Thomas Gonzalez, Owner",
    "Customer Contacts": "Thomas Gonzalez, Owner"
  },
  {
    "name": "Liberty Roofing Contractors",
    "rating": "BBB Rating: A+",
    "location": "4295 Park Woods Dr, Fresh Pond, CA 95726",
    "phone": "(530) 207-0249",
    "link": "https://www.bbb.org/us/ca/fresh-pond/profile/roofing-contractors/liberty-roofing-contractors-1156-90077072",
    "street": "4295 Park Woods Dr",
    "city": "Fresh Pond",
    "state": "CA",
    "zip": "95726",
    "fullAddress": "4295 Park Woods DrFresh Pond, CA 95726",
    "email": "",
    "website": "https://www.libertyroofingcontractorsca.com/",
    "websiteEmail": "",
    "phone1": "(530) 207-0249",
    "phone2": "(800) 321-2752",
    "Business Management:": "Mr. Cameron Caldwell, Owner; Mr. Brandon Lee, Partner; Mrs. Cassidy Lee, Office Administrator",
    "Principal Contacts": "Mr. Cameron Caldwell, Owner",
    "Customer Contacts": "Mr. Cameron Caldwell, Owner; Mrs. Cassidy Lee, Office Administrator"
  },
  {
    "name": "Walters Roofing Contractors",
    "rating": "",
    "location": "2155 Common Ridings Way, Barrington, IL 60010-5422",
    "phone": "(847) 304-4514",
    "link": "https://www.bbb.org/us/il/barrington/profile/roofing-contractors/walters-roofing-contractors-0654-88386269",
    "street": "2155 Common Ridings Way",
    "city": "Barrington",
    "state": "IL",
    "zip": "60010-5422",
    "fullAddress": "2155 Common Ridings WayBarrington, IL 60010-5422",
    "email": "",
    "website": "",
    "websiteEmail": "",
    "phone1": "(847) 304-4514",
    "Customer Contacts": "Ewa Mydlowski"
  },
  {
    "name": "C & D General Contractors",
    "rating": "BBB Rating: A+",
    "location": "14532 Manchester Rd, Ballwin, MO 63011-3959",
    "phone": "(314) 862-2342",
    "link": "https://www.bbb.org/us/mo/ballwin/profile/roofing-contractors/c-d-general-contractors-0734-1000028889",
    "street": "14532 Manchester Rd",
    "city": "Ballwin",
    "state": "MO",
    "zip": "63011-3959",
    "fullAddress": "14532 Manchester RdBallwin, MO 63011-3959",
    "email": "",
    "website": "https://canddgc.com/",
    "websiteEmail": "",
    "phone1": "(314) 862-2342",
    "Business Management:": "Mr. Dale Nelson III, President",
    "Principal Contacts": "Mr. Dale Nelson III, President",
    "Customer Contacts": "Mr. Dale Nelson III, President"
  },
  {
    "name": "Texas Pro Build Contractors",
    "rating": "BBB Rating: A+",
    "location": "Fort Worth, TX 76133-8932",
    "phone": "(682) 556-6572",
    "link": "https://www.bbb.org/us/tx/fort-worth/profile/general-contractor/texas-pro-build-contractors-0825-1000192697",
    "street": "",
    "city": "Fort Worth",
    "state": "TX",
    "zip": "76133-8932",
    "fullAddress": "Fort Worth, TX 76133-8932",
    "email": "",
    "website": "https://texasprobuild.net/",
    "websiteEmail": "",
    "phone1": "(682) 556-6572",
    "Business Management:": "Mr. Manuel 'Manny' Teran, Owner",
    "Principal Contacts": "Mr. Manuel 'Manny' Teran, Owner",
    "Customer Contacts": "Mr. Manuel 'Manny' Teran, Owner"
  },
  {
    "name": "Illinois Roofing Contractors",
    "rating": "BBB Rating: A+",
    "location": "2555 White Oak Cir, Aurora, IL 60502-9673",
    "phone": "(630) 554-2200",
    "link": "https://www.bbb.org/us/il/aurora/profile/roofing-contractors/illinois-roofing-contractors-0654-67000332",
    "street": "2555 White Oak Cir",
    "city": "Aurora",
    "state": "IL",
    "zip": "60502-9673",
    "fullAddress": "2555 White Oak CirAurora, IL 60502-9673",
    "email": "",
    "website": "https://www.illinoisroofing.com/",
    "websiteEmail": "",
    "phone1": "(630) 554-2200",
    "Business Management:": "Mr. Michael J. Ward, President",
    "Principal Contacts": "Mr. Michael J. Ward, President",
    "Customer Contacts": "Mr. Michael J. Ward, President"
  },
  {
    "name": "Saratoga Roofing Contractors",
    "rating": "BBB Rating: A+",
    "location": "PO Box 2104, Clifton Park, NY 12065",
    "phone": "(518) 992-6405",
    "link": "https://www.bbb.org/us/ny/saratoga-springs/profile/roofing-contractors/saratoga-roofing-contractors-0041-236004478",
    "street": "PO Box 2104",
    "city": "Clifton Park",
    "state": "NY",
    "zip": "12065",
    "fullAddress": "120 West Ave Ste 217Saratoga Springs, NY 12866-6077",
    "email": "",
    "website": "https://saratogaroofingco.com/",
    "websiteEmail": "",
    "phone1": "(518) 992-6405",
    "Business Management:": "Mr. David Livarchuk, Owner; Mr. Oleg Levchenko, Owner",
    "Principal Contacts": "Mr. David Livarchuk, Owner; Mr. Oleg Levchenko, Owner",
    "Customer Contacts": "Mr. David Livarchuk, Owner"
  },
  {
    "name": "Morey Brothers General Contractors",
    "rating": "BBB Rating: A+",
    "location": "20 Moore Road, Westford, MA 01886-1859",
    "phone": "(978) 423-3347",
    "link": "https://www.bbb.org/us/ma/westford/profile/building-contractors/morey-brothers-general-contractors-0021-27912",
    "street": "20 Moore Road",
    "city": "Westford",
    "state": "MA",
    "zip": "01886-1859",
    "fullAddress": "20 Moore RoadWestford, MA 01886-1859",
    "email": "",
    "website": "https://www.moreybrothers.com/",
    "websiteEmail": "",
    "phone1": "(978) 423-3347",
    "phone2": "(978) 667-2865",
    "phone3": "(978) 413-3306",
    "Business Management:": "Mr. Derek R Morey, Vice President; Mr. Jeff Morey, President",
    "Principal Contacts": "Mr. Derek R Morey, Vice President; Mr. Jeff Morey, President",
    "Customer Contacts": "Mr. Derek R Morey, Vice President; Mr. Jeff Morey, President"
  },
  {
    "name": "Saratoga Roofing Contractors",
    "rating": "BBB Rating: A+",
    "location": "120 West Ave Ste 217, Saratoga Springs, NY 12866-6077",
    "phone": "(518) 992-6405",
    "link": "https://www.bbb.org/us/ny/saratoga-springs/profile/roofing-contractors/saratoga-roofing-contractors-0041-236004478",
    "street": "120 West Ave Ste 217",
    "city": "Saratoga Springs",
    "state": "NY",
    "zip": "12866-6077",
    "fullAddress": "120 West Ave Ste 217Saratoga Springs, NY 12866-6077",
    "email": "",
    "website": "https://saratogaroofingco.com/",
    "websiteEmail": "",
    "phone1": "(518) 992-6405",
    "Business Management:": "Mr. David Livarchuk, Owner; Mr. Oleg Levchenko, Owner",
    "Principal Contacts": "Mr. David Livarchuk, Owner; Mr. Oleg Levchenko, Owner",
    "Customer Contacts": "Mr. David Livarchuk, Owner"
  }
]